time,altitude_ft,lat_deg,lon_deg,vc_kts,roll,pitch,yaw
0.008333333333333333,550.000002999342,29.58133792773741,-95.10662805331603,129.27864110674744,-7.514858710090743e-13,1.738472582643072e-08,2.1845312615387153e-12
0.016666666666666666,549.9985005247513,29.581342966364065,-95.10662805331084,129.24525000584356,-7.494295624576471e-10,0.004965947609267034,359.9999999986946
0.025,549.9965685761299,29.581348004228023,-95.1066280533022,129.2118985766162,-0.00065102239043157,0.01395478116587285,4.217845821024235e-08
0.03333333333333333,549.9939043736697,29.581353040790038,-95.10662805329025,129.17855256040954,-0.0014265220165814718,0.026132635884355236,6.015804021650333e-07
0.041666666666666664,549.9905242833137,29.58135807604837,-95.1066280532751,129.1452092138887,-0.0022190759962241197,0.04091462250011287,359.99999846491835
0.049999999999999996,549.9864492305177,29.58136311000295,-95.10662805325687,129.11186580530247,-0.0030176538787152272,0.057854572897563024,359.99999277570726
0.05833333333333333,549.9816996449917,29.581368142653055,-95.10662805323567,129.07851845479925,-0.0038238092185763012,0.07659329431605784,359.99998373083616
0.06666666666666667,549.9762958944784,29.581373173997893,-95.10662805321161,129.0451638259117,-0.004639709422243511,0.09684009097779998,359.99997159154265
0.075,549.9702580825415,29.58137820403658,-95.10662805318482,129.01179902260714,-0.005464250927962861,0.11835905023040472,359.99995635722655
0.08333333333333333,549.9636061203224,29.58138323276826,-95.1066280531554,128.97842150771626,-0.006296219336551189,0.14095809893494105,359.99993802635674
0.09166666666666666,549.9563597134851,29.581388260191964,-95.1066280531235,128.9450290380769,-0.007134477224245946,0.1644802599801373,359.99991660968897
0.09999999999999999,549.9485383785346,29.58139328630673,-95.10662805308927,128.91161961262856,-0.007977969749487656,0.1887966658030911,359.9998921295656
0.10833333333333332,549.9401614036691,29.581398311111553,-95.10662805305282,128.8781914307769,-0.008825719491615114,0.21380097546143817,359.9998646186005
0.11666666666666665,549.9312478553126,29.58140333460544,-95.10662805301428,128.84474285906364,-0.00967682101731738,0.23940491298396677,359.9998341185007
0.12499999999999999,549.9218166074617,29.58140835678734,-95.10662805297379,128.81127240444846,-0.010530435792011366,0.26553470155014813,359.9998006790427
0.13333333333333333,549.91188628624,29.581413377656215,-95.10662805293151,128.77777869285134,-0.011385787448249361,0.29212821342220857,359.9997643571739
0.14166666666666666,549.9014752927368,29.581418397211014,-95.10662805288759,128.74426045191018,-0.01224215738783023,0.3191326917835033,359.9997252162164
0.15,549.8906018029946,29.581423415450683,-95.10662805284214,128.71071649708023,-0.013098880694058809,0.34650292957080536,359.9996833251512
0.15833333333333333,549.8792837745456,29.581428432374114,-95.10662805279534,128.67714572049604,-0.013955342332164142,0.374199813496156,359.9996387579681
0.16666666666666666,549.8675389072625,29.581433447980235,-95.10662805274731,128.64354708190066,-0.014810973617454452,0.40218915991065485,359.9995915930689
0.175,549.8553846792423,29.581438462267954,-95.10662805269823,128.6099196013529,-0.015665248932383465,0.4304407839042808,359.9995419127133
0.18333333333333332,549.8428383109274,29.58144347523618,-95.10662805264823,128.5762623532458,-0.01651768267488396,0.45892775481334513,359.9994898025009
0.19166666666666665,549.8299168107641,29.581448486883783,-95.10662805259749,128.5425744614625,-0.017367826421953825,0.4876258007143501,359.99943535088266
0.19999999999999998,549.8166369099787,29.581453497209658,-95.10662805254611,128.50885509546447,-0.018215266293142986,0.5165128319997951,359.9993786486991
0.20833333333333331,549.8030151310631,29.581458506212677,-95.10662805249429,128.47510346691956,-0.019059620500183623,0.5455685601357191,359.99931978873923
0.21666666666666665,549.7890677160258,29.581463513891705,-95.10662805244218,128.4413188270665,-0.019900537069630696,0.5747741925004882,359.99925886532026
0.22499999999999998,549.7748106948807,29.581468520245597,-95.10662805238991,128.40748667971297,-0.02073769172648362,0.6041121880367821,359.9991959738857
0.2333333333333333,549.7602598204196,29.58147352527219,-95.10662805233765,128.37359100423242,-0.02157078592613826,0.6335658640158246,359.999131210693
0.24166666666666664,549.7454306236574,29.58147852896885,-95.10662805228556,128.33963818644983,-0.02239954503797973,0.6631191837440746,359.99906467248354
0.24999999999999997,549.7303383649055,29.58148353133404,-95.10662805223377,128.30562787328984,-0.023223716662904088,0.692756969494075,359.99899645601823
0.2583333333333333,549.7149980696547,29.58148853236563,-95.10662805218247,128.27155974896434,-0.024043069049377305,0.722464794600525,359.99892665773433
0.26666666666666666,549.6994244763866,29.581493532061614,-95.10662805213177,128.23743353154876,-0.024857389626782245,0.7522288871168374,359.99885537342135
0.275,549.6836321278993,29.58149853041994,-95.10662805208186,128.20324897153276,-0.025666483643535427,0.7820360520675699,359.9987826979129
0.2833333333333334,549.6676352669338,29.581503527438603,-95.10662805203287,128.16900585059645,-0.026470172902379633,0.8118736088425358,359.9987087247931
0.29166666666666674,549.6514479046715,29.58150852311558,-95.10662805198494,128.1347039804738,-0.02726829458610932,0.8417293406958581,359.99863354611875
0.3000000000000001,549.6350838044244,29.581513517448833,-95.10662805193826,128.100343201894,-0.02806070016752334,0.871591453917867,359.99855725215644
0.30833333333333346,549.6185564653255,29.581518510436347,-95.10662805189294,128.06592338369984,-0.028847254397562527,0.9014485447346322,359.9984799311358
0.3166666666666668,549.6018791386396,29.581523502076116,-95.10662805184913,128.03144442191734,-0.029627834366287204,0.9312895723798128,359.99840166901816
0.3250000000000002,549.5850648342847,29.581528492366097,-95.106628051807,127.9969062389073,-0.03040232863159511,0.9611038370949162,359.99832254928066
0.33333333333333354,549.5681262947396,29.58153348130428,-95.10662805176666,127.96230878268693,-0.03117063641086738,0.9908809620636556,359.9982426527173
0.3416666666666669,549.551076030922,29.581538468888642,-95.10662805172828,127.92765202607755,-0.03193266683119992,1.0206108784847232,359.9981620572553
0.35000000000000026,549.5339262960948,29.581543455117153,-95.10662805169197,127.89293596604283,-0.0326883382340992,1.0502838131474268,359.9980808377876
0.3583333333333336,549.5166890793433,29.581548439987806,-95.10662805165789,127.85816062304521,-0.03343757753068897,1.0798902780017723,359.9979990660224
0.366666666666667,549.4993761544983,29.58155342349858,-95.10662805162617,127.82332604028369,-0.034180319604033296,1.109421061316435,359.99791681034753
0.37500000000000033,549.4819990312157,29.581558405647456,-95.10662805159697,127.78843228314334,-0.03491650675502783,1.1388672200999737,359.9978341357126
0.3833333333333337,549.4645689517071,29.58156338643242,-95.10662805157038,127.75347943852232,-0.03564608818898745,1.1682200735258264,359.9977511035258
0.39166666666666705,549.4470969657668,29.581568365851442,-95.10662805154654,127.71846761423227,-0.03636901953976103,1.1974711971534144,359.9976677715676
0.4000000000000004,549.4295938361764,29.581573343902505,-95.10662805152559,127.68339693840717,-0.03708526242894779,1.2266124177802225,359.99758419392003
0.40833333333333377,549.4120701006807,29.581578320583624,-95.10662805150764,127.64826755888123,-0.03779478405740438,1.2556358087924453,359.9975004209114
0.41666666666666713,549.3945360491518,29.581583295892752,-95.10662805149283,127.61307964268158,-0.038497556826973055,1.284533685908667,359.99741649907696
0.4250000000000005,549.3770017366415,29.581588269827904,-95.10662805148128,127.57783337537789,-0.039193557990001196,1.3132986032329796,359.9973324711339
0.43333333333333385,549.3594769898984,29.581593242387036,-95.10662805147311,127.54252896058487,-0.03988276932478824,1.34192334955013,359.997248375972
0.4416666666666672,549.3419713780163,29.581598213568192,-95.10662805146839,127.50716661941127,-0.04056517683490635,1.370400944809839,359.9971642486582
0.45000000000000057,549.3244942613602,29.581603183369335,-95.1066280514673,127.47174658987497,-0.04124077047070897,1.3987246367577395,359.99708012045556
0.4583333333333339,549.3070547458988,29.581608151788476,-95.10662805146991,127.43626912644378,-0.041909543871360914,1.426887897679584,359.9969960188557
0.4666666666666673,549.2896617092979,29.58161311882362,-95.10662805147633,127.4007344994434,-0.04257149412586857,1.4548844212322734,359.9969119676247
0.47500000000000064,549.2723238204997,29.581618084472762,-95.1066280514867,127.36513828310645,-0.043226621551498944,1.4827081193405331,359.9968279868613
0.483333333333334,549.2550494973042,29.581623048733583,-95.10662805150108,127.32946717089705,-0.04387492948688315,1.510353051594757,359.99674409311916
0.49166666666666736,549.237846945525,29.581628011602966,-95.10662805151959,127.29372691325722,-0.044516424101637746,1.5378132833408136,359.9966602996029
0.5000000000000007,549.2207241361469,29.581632973078836,-95.10662805154234,127.25791808479818,-0.04515111423681168,1.565083141682491,359.9965766160798
0.508333333333334,549.2036888314271,29.581637933158653,-95.10662805156942,127.22204127438982,-0.045779011236372215,1.5921572095556755,359.9964930489803
0.5166666666666673,549.1867485587946,29.581642891839984,-95.1066280516009,127.18609708285399,-0.04640012879374185,1.6190303133139219,359.9964096015152
0.5250000000000006,549.16991064347,29.58164784912036,-95.1066280516369,127.15008612242123,-0.04701448280935225,1.645697511949446,359.9963262738006
0.5333333333333339,549.1531821823743,29.581652804997407,-95.10662805167752,127.11400901609062,-0.047622091258108235,1.6721540878622092,359.9962430629916
0.5416666666666672,549.1365700539085,29.581657759468698,-95.10662805172281,127.07786639704271,-0.04822297406611102,1.6983955388711962,359.99615996342317
0.5500000000000005,549.1200809310047,29.58166271253186,-95.10662805177286,127.04165890811787,-0.04881715299569873,1.7244175712208838,359.9960769667581
0.5583333333333338,549.1037212941693,29.581667664184515,-95.1066280518278,127.00538720115259,-0.049404651538237795,1.750216093384535,359.995994062141
0.5666666666666671,549.0874973988693,29.58167261442433,-95.10662805188765,126.96905193663403,-0.04998549481398696,1.7757872105058825,359.99591123635827
0.5750000000000004,549.0714152820527,29.58167756324899,-95.10662805195254,126.93265378305372,-0.05055970947839453,1.8011272193524377,359.99582847400234
0.5833333333333337,549.055480804552,29.581682510656133,-95.10662805202253,126.8961934164686,-0.051127323634333595,1.8262326036789587,359.99574575764103
0.591666666666667,549.0396996119412,29.58168745664351,-95.10662805209768,126.85967152001744,-0.05168836674975995,1.8511000299204208,359.9956630679897
0.6000000000000003,549.0240771704176,29.58169240120881,-95.10662805217807,126.82308878345557,-0.05224286958028532,1.8757263431494315,359.99558038408674
0.6083333333333336,549.0086187243988,29.5816973443498,-95.10662805226377,126.78644590268873,-0.052790864096261776,1.9001085632468724,359.9954976834709
0.6166666666666669,548.9933293487082,29.58170228606424,-95.10662805235486,126.74974357933505,-0.05333238341399737,1.9242438812442637,359.99541494236047
0.6250000000000002,548.9782139159549,29.581707226349877,-95.10662805245141,126.7129825202746,-0.05386746173068915,1.948129655805424,359.99533213583305
0.6333333333333335,548.9632771095899,29.58171216520455,-95.10662805255349,126.67616343729208,-0.05439613426279864,1.971763409821411,359.9952492380055
0.6416666666666668,548.9485234434669,29.581717102626072,-95.10662805266114,126.6392870465907,-0.05491843718749774,1.9951428270976719,359.99516622221324
0.6500000000000001,548.933957232489,29.581722038612273,-95.10662805277445,126.60235406841406,-0.05543440758696744,2.0182657491174942,359.9950830611888
0.6583333333333334,548.9195826121805,29.58172697316101,-95.10662805289346,126.56536522668118,-0.05594408339524162,2.041130171868755,359.99499972723765
0.6666666666666667,548.9054035517341,29.581731906270193,-95.10662805301824,126.52832124858627,-0.05644750334743557,2.063734242723603,359.994916192413
0.675,548.8914238442233,29.5817368379377,-95.10662805314887,126.49122286423204,-0.056944706931080724,2.086076257363377,359.9948324286861
0.6833333333333333,548.8776471000774,29.58174176816148,-95.10662805328536,126.45407080623401,-0.05743573433937727,2.1081546567424487,359.99474840811416
0.6916666666666667,548.8640767731804,29.581746696939465,-95.10662805342781,126.41686580941018,-0.05792062642626243,2.1299680240862124,359.994664103003
0.7,548.8507161380335,29.581751624269625,-95.10662805357626,126.3796086104395,-0.05839942466311727,2.1515150819196465,359.99457948606613
0.7083333333333333,548.8375683093267,29.581756550149958,-95.10662805373077,126.3422999474793,-0.05887217109687536,2.172794689123539,359.99449453057775
0.7166666666666666,548.8246362484642,29.581761474578492,-95.1066280538914,126.30494055988218,-0.059338908309581426,2.193805838016451,359.9944092105206
0.7249999999999999,548.8119227537761,29.58176639755324,-95.10662805405818,126.26753118785439,-0.05979967937914777,2.2145476514608675,359.9943235007276
0.7333333333333332,548.7994304572599,29.581771319072278,-95.10662805423118,126.23007257218686,-0.060254527841323985,2.235019379992556,359.9942373770168
0.7416666666666665,548.7871618506681,29.5817762391337,-95.10662805441045,126.19256545386435,-0.060703497652720734,2.255220398972354,359.9941508163197
0.7499999999999998,548.7751192692051,29.581781157735595,-95.10662805459604,126.15501057386847,-0.06114663315484205,2.275150205760062,359.9940637968021
0.7583333333333331,548.763304888264,29.581786074876117,-95.10662805478799,126.11740867284723,-0.06158397903906104,2.29480841691031,359.9939762979774
0.7666666666666664,548.751720765825,29.581790990553397,-95.10662805498637,126.0797604908304,-0.06201558031254387,2.3141947653901243,359.9938883008122
0.7749999999999997,548.7403687902746,29.581795904765645,-95.1066280551912,126.04206676698638,-0.0624414822649385,2.3333090978186655,359.993799787824
0.783333333333333,548.7292507195393,29.58180081751106,-95.10662805540255,126.00432823935395,-0.06286173043596681,2.3521513717291187,359.9937107431695
0.7916666666666663,548.7183681843507,29.581805728787852,-95.10662805562046,125.9665456445443,-0.06327637058376849,2.3707216528529753,359.99362115272584
0.7999999999999996,548.7077226458417,29.5818106385943,-95.10662805584498,125.92871971761404,-0.06368544865399513,2.3890201124273562,359.9935310041623
0.8083333333333329,548.6973154803509,29.581815546928652,-95.10662805607616,125.89085119165858,-0.06408901074969972,2.4070470245253803,359.9934402870033
0.8166666666666662,548.6871478880961,29.58182045378924,-95.10662805631402,125.85294079771496,-0.0644871031019362,2.4248027634103013,359.9933489926827
0.8249999999999995,548.6772209844991,29.581825359174413,-95.10662805655865,125.81498926449298,-0.06487977204109437,2.4422878009136944,359.9932571145892
0.8333333333333328,548.6675357251693,29.581830263082477,-95.10662805681005,125.77699731814617,-0.06526706396894086,2.4595027038380457,359.9931646481028
0.8416666666666661,548.6580929580879,29.58183516551186,-95.10662805706829,125.73896568209072,-0.06564902533143178,2.476448131384512,359.99307159062204
0.8499999999999994,548.6488934170861,29.581840066460913,-95.10662805733341,125.700895076762,-0.06602570259221485,2.4931248326057376,359.9929779415829
0.8583333333333327,548.6399377022752,29.58184496592812,-95.10662805760546,125.6627862194809,-0.06639714220689606,2.5095336438849283,359.9928837024688
0.866666666666666,548.6312263159227,29.581849863911927,-95.10662805788446,125.62463982418464,-0.0667633905980402,2.525675486440739,359.9927888768113
0.8749999999999993,548.6227596363597,29.5818547604108,-95.10662805817049,125.58645660132105,-0.06712449413086853,2.541551363859043,359.99269347018304
0.8833333333333326,548.6145379408147,29.58185965542326,-95.10662805846356,125.54823725761726,-0.06748049908981053,2.5571623596517696,359.99259749018245
0.8916666666666659,548.6065613988862,29.581864548947824,-95.10662805876372,125.50998249594832,-0.06783145165576121,2.572509634842971,359.9925009464093
0.8999999999999992,548.5988300692838,29.581869440983077,-95.10662805907103,125.47169301514936,-0.06817739788414491,2.587594425582893,359.992403850433
0.9083333333333325,548.5913438998274,29.581874331527594,-95.10662805938551,125.4333695098857,-0.0685183836837518,2.60241804078996,359.9923062157536
0.9166666666666659,548.5841027665864,29.58187922057999,-95.1066280597072,125.39501267047768,-0.06885445479639479,2.616981859821326,359.9922080577546
0.9249999999999992,548.5771064184316,29.581884108138908,-95.10662806003617,125.3566231827353,-0.06918565677739474,2.631287330172214,359.9921093936487
0.9333333333333325,548.5703545259574,29.581888994202995,-95.10662806037243,125.31820172788704,-0.06951203497688634,2.6453359652041577,359.9920102424176
0.9416666666666658,548.5638466717036,29.581893878770938,-95.10662806071603,125.2797489823673,-0.06983363452193095,2.6591293419027506,359.9919106247441
0.9499999999999991,548.5575823175317,29.58189876184148,-95.10662806106701,125.24126561777955,-0.07015050029953776,2.6726690986648234,359.9918105629393
0.9583333333333324,548.5515608763834,29.58190364341333,-95.10662806142543,125.20275230066956,-0.07046267694049317,2.6859569331153783,359.99171008086284
0.9666666666666657,548.5457816535728,29.581908523485286,-95.1066280617913,125.16420969250171,-0.07077020880409264,2.6989945999546268,359.9916092038392
0.974999999999999,548.5402438793998,29.581913402056117,-95.10662806216466,125.12563844948194,-0.07107313996369195,2.711783908835218,359.99150795856747
0.9833333333333323,548.5349466863184,29.58191827912464,-95.10662806254557,125.08703922249289,-0.07137151419319514,2.7243267222697356,359.9914063730278
0.9916666666666656,548.5298891546045,29.58192315468972,-95.10662806293404,125.0484126569765,-0.07166537495439766,2.736624953568884,359.9913044763832
0.9999999999999989,548.5250702536388,29.581928028750205,-95.10662806333013,125.00975939286663,-0.07195476538519142,2.748680564810174,359.9912022988777
1.0083333333333322,548.520488910406,29.581932901304977,-95.10662806373388,124.97108006441118,-0.07223972828868842,2.7604955648374596,359.9910998717309
1.0166666666666655,548.5161439703548,29.581937772352983,-95.1066280641453,124.93237530020139,-0.07252030612320166,2.7720720072914955,359.9909972270307
1.0249999999999988,548.5120341941355,29.581942641893164,-95.10662806456445,124.89364572300097,-0.072796540993116,2.783411988671231,359.99089439762224
1.033333333333332,548.5081582902131,29.581947509924465,-95.10662806499134,124.85489194974241,-0.07306847464063485,2.7945176464263146,359.9907914169962
1.0416666666666654,548.5045148887796,29.581952376445912,-95.10662806542602,124.81611459139438,-0.07333614843837699,2.805391157080704,359.9906883191747
1.0499999999999987,548.50110257763,29.581957241456497,-95.10662806586852,124.77731425291874,-0.07359960338285473,2.8160347343872556,359.9905851385964
1.058333333333332,548.4979198467106,29.581962104955274,-95.10662806631889,124.73849153320005,-0.07385888008880104,2.8264506275137187,359.99048191000117
1.0666666666666653,548.4949651664027,29.58196696694129,-95.10662806677713,124.69964702500388,-0.07411401878430776,2.8366411192596526,359.9903786683146
1.0749999999999986,548.4922369157651,29.58197182741367,-95.1066280672433,124.66078131489459,-0.07436505930682148,2.846608524304695,359.990275448532
1.083333333333332,548.4897334347208,29.58197668637152,-95.10662806771741,124.62189498323427,-0.07461204109994717,2.856355187487864,359.9901722856044
1.0916666666666652,548.487453011007,29.581981543813942,-95.1066280681995,124.58298860404923,-0.07485500321101694,2.8658834821179022,359.99006921432436
1.0999999999999985,548.4853938736578,29.581986399740153,-95.10662806868959,124.54406302574436,-0.07509398428944823,2.8751958083148668,359.98996626921377
1.1083333333333318,548.4835541897357,29.58199125414931,-95.10662806918772,124.50511922597045,-0.07532902258477264,2.884294589698668,359.98986348443566
1.1166666666666651,548.4819321165229,29.581996107040712,-95.1066280696939,124.4661575928734,-0.07556015594826099,2.89318227079393,359.98976089364663
1.1249999999999984,548.4805257134542,29.58200095841356,-95.10662807020819,124.42717867715587,-0.0757874218324505,2.901861319063096,359.9896585299078
1.1333333333333317,548.4793330367056,29.58200580826714,-95.10662807073058,124.38818302287315,-0.07601085729245477,2.9103342230981744,359.989556425583
1.141666666666665,548.4783520870075,29.582010656600744,-95.10662807126108,124.34917116754832,-0.07623049898791374,2.918603490985796,359.9894546122391
1.1499999999999984,548.4775807965976,29.582015503413725,-95.10662807179978,124.31014364212771,-0.07644638318555722,2.926671648733008,359.9893531205509
1.1583333333333317,548.4770171042411,29.582020348705402,-95.10662807234664,124.27110097093802,-0.07665854576242027,2.9345412387426646,359.9892519802093
1.166666666666665,548.4766588899935,29.582025192475136,-95.1066280729017,124.23204367167251,-0.07686702220955545,2.942214818334951,359.9891512198336
1.1749999999999983,548.4765039784635,29.58203003472233,-95.10662807346498,124.19297225544005,-0.07707184763637123,2.949694958311542,359.98905086688876
1.1833333333333316,548.4765501877426,29.582034875446386,-95.1066280740365,124.15388722668283,-0.07727305677545301,2.956984241559774,359.9889509476068
1.1916666666666649,548.4767952902573,29.582039714646733,-95.10662807461627,124.11478908318415,-0.0774706839879079,2.964085261694691,359.98885148691346
1.1999999999999982,548.4772370388687,29.58204455232283,-95.10662807520433,124.07536203482131,-0.07798474052812056,2.9710006214790505,359.9887525343112
1.2083333333333315,548.47787268091,29.58204938845051,-95.10662807580066,124.03569533143052,-0.07881107191486378,2.977734825911544,359.98865413923176
1.2166666666666648,548.4786999040149,29.582054223028717,-95.10662807640541,123.9957784807037,-0.07992864700184618,2.984292064248652,359.98855492294473
1.224999999999998,548.4797161348963,29.582059056045825,-95.10662807701863,123.95560117315786,-0.08131676729341697,2.990676325679993,359.98845346551235
1.2333333333333314,548.480918793745,29.582063887491465,-95.10662807764045,123.91515325966772,-0.08295595925605362,2.996891439924534,359.98834837984293
1.2416666666666647,548.4823052877084,29.582068717354847,-95.106628078271,123.87442475767104,-0.08482795357170594,3.0029411069755243,359.9882383184042
1.249999999999998,548.4838729880556,29.582073545624787,-95.10662807891039,123.83340585682627,-0.08691561678168785,3.0088289208374657,359.9881219758641
1.2583333333333313,548.485619210613,29.58207837228978,-95.10662807955882,123.79208215292846,-0.08920288386131439,3.01455838845134,359.98799809141764
1.2666666666666646,548.487542295301,29.58208319733755,-95.10662808021644,123.75044570465275,-0.09167469579810644,3.0201501593694737,359.9878654238213
1.274999999999998,548.4896396231732,29.582088020755815,-95.1066280808835,123.70848835361899,-0.09431693734641847,3.0256243924431363,359.9877227904821
1.2833333333333312,548.4919089275211,29.582092842531882,-95.10662808156016,123.66620150345722,-0.0971163790444609,3.0309976333336186,359.98756908919665
1.2916666666666645,548.494347912284,29.58209766265271,-95.1066280822467,123.62357662231928,-0.1000606239665181,3.0362833778739615,359.98740329489914
1.2999999999999978,548.4969542487828,29.58210248110494,-95.10662808294339,123.58060527941834,-0.10313805767071982,3.041492655688849,359.9872244566975
1.3083333333333311,548.4997256409575,29.582107297874863,-95.10662808365048,123.5372791900846,-0.10633780107284606,3.04663450263997,359.9870316956929
1.3166666666666644,548.5026597601322,29.582112112948483,-95.10662808436828,123.49358881934673,-0.10964966606652173,3.051716341996813,359.9868242039729
1.3249999999999977,548.5057542776277,29.582116926311386,-95.10662808509713,123.44952862044822,-0.11306411585387492,3.0567443004517267,359.986601204977
1.333333333333331,548.5090068810756,29.582121737949066,-95.10662808583736,123.40509234575231,-0.11657222102120393,3.0617234345099775,359.9863620460593
1.3416666666666643,548.5124152352765,29.58212654784674,-95.10662808658931,123.36027451651093,-0.12016561742759406,3.0666579299233114,359.98610629580634
1.3499999999999976,548.5159770343848,29.582131355989432,-95.10662808735339,123.3151339097155,-0.12383646861652298,3.071551266647712,359.985833800341
1.358333333333331,548.5196900279973,29.58213616236671,-95.10662808813,123.27039733446978,-0.12757734483686287,3.07640597073895,359.9855463428964
1.3666666666666643,548.5235530061112,29.58214096701933,-95.10662808891954,123.225915467254,-0.1313801669448676,3.0812197236989243,359.98526674148115
1.3749999999999976,548.5275638455217,29.582145769940077,-95.10662808972245,123.18116965181373,-0.1352371089633818,3.0859903557383284,359.9850208448071
1.3833333333333309,548.5317200316485,29.58215057110253,-95.10662809053909,123.13637060160399,-0.13914149472776316,3.0907191682225243,359.98482129089547
1.3916666666666642,548.5360198457024,29.582155370520557,-95.10662809136984,123.0915416271902,-0.1430869986267673,3.095406915224188,359.9846822859888
1.3999999999999975,548.5404612688488,29.5821601681904,-95.10662809221495,123.04668141078332,-0.14706758636622663,3.1000540781551553,359.9846192492618
1.4083333333333308,548.5450422887662,29.5821649641104,-95.10662809307456,123.00179864856085,-0.15107753055604572,3.1046610916807986,359.98464798949317
1.416666666666664,548.5497609583693,29.582169758280017,-95.10662809394876,122.95692215603916,-0.15511138840573196,3.109228344528214,359.98478467110584
1.4249999999999974,548.5546153599211,29.58217455070036,-95.10662809483748,122.91211038124564,-0.15916394876129428,3.1137560699096087,359.98504632038834
1.4333333333333307,548.5596036343921,29.582179341375557,-95.10662809574053,122.86741287010157,-0.16323015583036524,3.118244168715873,359.98545177429423
1.441666666666664,548.5647239912453,29.582184130310903,-95.10662809665754,122.8228419884795,-0.16730508445716633,3.122692270910745,359.986021705315
1.4499999999999973,548.5699746105872,29.582188917510962,-95.10662809758794,122.77834075934037,-0.17138397963948446,3.1271000114169767,359.98677755354925
1.4583333333333306,548.575353617082,29.582193702976195,-95.10662809853096,122.73397361237724,-0.1754623665649734,3.1314675079542478,359.9877392023975
1.466666666666664,548.580859291942,29.582198486715054,-95.10662809948562,122.6897895433093,-0.17953589609804763,3.135794688599548,359.9889275283176
1.4749999999999972,548.5864899489962,29.58220326873539,-95.10662810045062,122.64570032183771,-0.18360030024162868,3.1400812590209073,359.9903647693997
1.4833333333333305,548.5922437259521,29.58220804903692,-95.10662810142443,122.60168083768298,-0.18765158075427693,3.144327536719809,359.99207079787965
1.4916666666666638,548.5981188420561,29.582212827622946,-95.10662810240524,122.5577934285166,-0.19168597495111453,3.1485341844329287,359.99406359260485
1.4999999999999971,548.6041136470113,29.58221760450121,-95.10662810339083,122.51404877851192,-0.19569979732949846,3.152701586173591,359.9963617775649
1.5083333333333304,548.6102264220326,29.582222379676665,-95.10662810437876,122.47047042892915,-0.19968945609881678,3.1568300453353646,359.9989839928533
1.5166666666666637,548.6164555102966,29.58222715315645,-95.10662810536611,122.42705663940691,-0.20365157044220958,3.160919753870274,0.0019466104596480818
1.524999999999997,548.6227992615111,29.582231924946555,-95.10662810634969,122.38382055732843,-0.20758294108710315,3.1649709508115285,0.005264134621772834
1.5333333333333303,548.6292560416832,29.582236695054384,-95.10662810732589,122.3409162920341,-0.21147768936227052,3.168983860588318,0.008949289196109725
1.5416666666666636,548.6358244744788,29.5822414634982,-95.10662810829065,122.29828879883007,-0.21533036734996347,3.172957815531479,0.013008519360980249
1.549999999999997,548.6425029617841,29.582246230284284,-95.10662810923958,122.2560093003395,-0.21913864682760664,3.176892432296595,0.01744728910459095
1.5583333333333302,548.6492901174803,29.582250995429664,-95.10662811016786,122.21422312943416,-0.2229005531836828,3.180787075959236,0.022267801463965706
1.5666666666666635,548.6561847087328,29.582255758957604,-95.10662811107022,122.17287559712223,-0.22661449885923898,3.1846403105141823,0.02746557962403546
1.5749999999999968,548.6631853363799,29.582260520880887,-95.10662811194108,122.13192329834685,-0.230278982450627,3.1884510823313192,0.03303475603047262
1.5833333333333302,548.6702906175599,29.582265281214262,-95.10662811277437,122.0911686400364,-0.23389250769189102,3.192218876906505,0.038969281989691316
1.5916666666666635,548.6774989378544,29.58227003995908,-95.10662811356377,122.05067141549851,-0.23745334075312421,3.1959446323902387,0.04526734174209432
1.5999999999999968,548.6848089731117,29.582274797130744,-95.1066281143025,122.01042973131834,-0.24095982414806952,3.199629199765865,0.051925735473025564
1.60833333333333,548.6922192752422,29.582279552738175,-95.10662811498347,121.9704842276839,-0.2444103863307142,3.203273363952672,0.058940072044688194
1.6166666666666634,548.6997285331441,29.582284306794374,-95.10662811559924,121.9308329345009,-0.24780361267242448,3.2068775826398888,0.06630353976604486
1.6249999999999967,548.7073353411254,29.582289059310142,-95.10662811614202,121.89146641553123,-0.2511382058406294,3.210442220217398,0.07400768573019866
1.63333333333333,548.7150383815588,29.582293810296207,-95.10662811660376,121.85238115539984,-0.25441295885599297,3.213967655295176,0.08204289602931904
1.6416666666666633,548.7228363009406,29.58229855976363,-95.10662811697607,121.81360073358486,-0.25762675426822085,3.2174542660715852,0.09039844761537652
1.6499999999999966,548.7307278305635,29.58230330772518,-95.10662811725024,121.77511508652542,-0.26077860882188875,3.2209022576736257,0.09906178377452522
1.6583333333333299,548.7387116430114,29.582308054191603,-95.10662811741736,121.73691940653859,-0.2638676384040792,3.2243118441770515,0.10801923093807539
1.6666666666666632,548.7467864695803,29.582312799174197,-95.10662811746825,121.69900647937101,-0.2668930537630092,3.2276832537818843,0.1172561199348996
1.6749999999999965,548.7549510415623,29.582317542683814,-95.10662811739348,121.66140909948052,-0.26985416728052775,3.231016739440753,0.1267567491121739
1.6833333333333298,548.7632041424336,29.58232228473406,-95.10662811718346,121.6241330025963,-0.27275045771465756,3.2343123289823876,0.13650332525348344
1.691666666666663,548.7715445556703,29.582327025337122,-95.10662811682838,121.58716855790016,-0.2755815367518223,3.2375699557267024,0.14647666956689176
1.6999999999999964,548.7799710777947,29.582331764504698,-95.10662811631829,121.55051276289568,-0.27834711677250074,3.240789590357352,0.15665683390778157
1.7083333333333297,548.7884825020659,29.582336502248907,-95.10662811564313,121.51416259251971,-0.2810470110812831,3.243971224745483,0.16702316840237064
1.716666666666663,548.79707765436,29.58234123858158,-95.10662811479271,121.47811501875341,-0.28368113571986564,3.2471148633719458,0.17755439286444297
1.7249999999999963,548.8057553670756,29.582345973514464,-95.1066281137568,121.44236740982932,-0.2862495110844317,3.250220516739977,0.18822866993305054
1.7333333333333296,548.8145144758711,29.582350707059224,-95.10662811252509,121.40691313965175,-0.2887522632859709,3.2532881944219034,0.19902366894441445
1.741666666666663,548.8233538359758,29.582355439227072,-95.10662811108726,121.37174984122822,-0.29118963150510635,3.256317924336865,0.209916528591869
1.7499999999999962,548.8322722895695,29.58236017002937,-95.106628109433,121.33687617710507,-0.29356196435522136,3.259309727193948,0.22088401110417558
1.7583333333333295,548.8412687310221,29.582364899477447,-95.10662810755207,121.3022902669265,-0.295869717083082,3.262263603475818,0.23190262968124994
1.7666666666666628,548.8503420351276,29.582369627582434,-95.10662810543424,121.26799048316153,-0.29811345168896397,3.2651795343916636,0.24294872335245313
1.7749999999999961,548.8594910962535,29.58237435435544,-95.10662810306943,121.23397535610498,-0.3002938369680509,3.2680574817405748,0.2539985277000368
1.7833333333333294,548.8687148120245,29.58237907980755,-95.10662810044761,121.20024353829527,-0.30241164823873884,3.2708973883150954,0.26502824663375935
1.7916666666666627,548.8780121028999,29.582383803949785,-95.10662809755895,121.1667938346802,-0.30446776672943116,3.273699178777802,0.2760141251737604
1.799999999999996,548.8873819023828,29.582388526793117,-95.10662809439381,121.13362521093588,-0.30646317864602546,3.276462760622857,0.2869325212224072
1.8083333333333294,548.896823140715,29.58239324834846,-95.1066280909427,121.10079321651965,-0.30839897392685317,3.2791880252284447,0.2977599760807718
1.8166666666666627,548.906334852504,29.582397968630953,-95.10662808719637,121.06828500441726,-0.3102764338409873,3.281874502162752,0.3084717216723756
1.824999999999996,548.9159160006056,29.582402687651825,-95.10662808314582,121.0360998458574,-0.31209695170223567,3.284521740510735,0.31904312950433683
1.8333333333333293,548.9255656065825,29.582407405423837,-95.10662807878231,121.00423713289904,-0.3138620191740576,3.2871293214772295,0.3294499066482809
1.8416666666666626,548.9352826822135,29.58241212195956,-95.10662807409747,120.97269920933775,-0.31557322662642573,3.2896968589317956,0.33966811374923084
1.8499999999999959,548.9450662360127,29.582416837271715,-95.10662806908317,120.94148818464024,-0.3172322577032394,3.2922239787097154,0.34967428770965236
1.8583333333333292,548.9549153417294,29.582421551373077,-95.1066280637317,120.91064987095388,-0.3188408865476432,3.2947103143699548,0.3594455083074941
1.8666666666666625,548.9648291024598,29.582426264279768,-95.10662805803567,120.88019364797768,-0.32040104437902167,3.2971552372249566,0.36895825111663033
1.8749999999999958,548.9748066213019,29.58243097600625,-95.10662805198811,120.8501160339083,-0.3219147829764853,3.2995580477457436,0.37818905952054027
1.883333333333329,548.9848470013546,29.582435686566978,-95.10662804558248,120.82042065161137,-0.3233842363923026,3.301918108579402,0.3871151672481418
1.8916666666666624,548.9949493815932,29.58244039597703,-95.10662803881264,120.79111138669691,-0.3248116162690808,3.3042348279230067,0.3957145515718259
1.8999999999999957,549.0051129009917,29.582445104251526,-95.10662803167295,120.76219239828399,-0.32619920876109004,3.3065076509345794,0.40396598475057643
1.908333333333329,549.0153367083078,29.582449811405738,-95.10662802415827,120.73366812600692,-0.32754937127905914,3.308736053202899,0.4118490819072623
1.9166666666666623,549.0256199914398,29.582454517455115,-95.10662801626391,120.70547994249125,-0.3288645289765744,3.31091953565155,0.4193443451493874
1.9249999999999956,549.0359618176088,29.582459222410588,-95.10662800798578,120.67764513029478,-0.3301470699331117,3.3130580106710523,0.42643495766906336
1.933333333333329,549.0463613714521,29.5824639262875,-95.10662799932024,120.65016617987901,-0.33139942818369156,3.315151380066686,0.43310530734547553
1.9416666666666622,549.0568178180332,29.582468629099466,-95.10662799026429,120.62304447118308,-0.33262408924828585,3.3171995316455076,0.4393409316093155
1.9499999999999955,549.067330319158,29.582473330860424,-95.10662798081539,120.59628142607144,-0.33382358525649036,3.3192023475572645,0.44512855044109184
1.9583333333333288,549.0778980594615,29.582478031584383,-95.10662797097164,120.56987850635248,-0.3350004893512149,3.3211597099581023,0.4504560946852388
1.9666666666666621,549.0885202333639,29.58248273128539,-95.10662796073169,120.54383721225801,-0.33615740994185395,3.3230715057770435,0.4553127301242384
1.9749999999999954,549.0991960254979,29.58248742997753,-95.10662795009476,120.51818415140353,-0.33729698485533777,3.324937630775866,0.45968887728412516
1.9833333333333287,549.1099247118221,29.582492127676865,-95.10662793906063,120.49295304328368,-0.338421915560496,3.3267578385531547,0.4635755329457585
1.991666666666662,549.1207055389364,29.582496824400604,-95.10662792762969,120.46813224319088,-0.33953498667669296,3.3285316808096295,0.4669638557628501
1.9999999999999953,549.1315377730136,29.58250152016376,-95.1066279158029,120.44372353774573,-0.34063899470773035,3.3302587988126753,0.4698462908900945
2.008333333333329,549.1424206965318,29.58250621498263,-95.10662790358185,120.41972870802338,-0.34173673898759743,3.331938903328866,0.4722165766163358
2.016666666666662,549.1533535821843,29.582510908873378,-95.10662789096868,120.39614953532127,-0.3428310160235667,3.333571767009438,0.47406974981718547
2.0249999999999955,549.1643357189721,29.582515601852233,-95.1066278779661,120.37298112796998,-0.3439246139894022,3.3351572187258967,0.4754021473282138
2.0333333333333288,549.1753664219907,29.582520293934987,-95.1066278645775,120.3502278018391,-0.34502031794237076,3.33669517794443,0.476211218007419
2.041666666666662,549.1864449835008,29.582524985138058,-95.10662785080679,120.32789177635705,-0.3461208932022919,3.3381856004440107,0.47649571038668287
2.0499999999999954,549.1975707283787,29.58252967547771,-95.10662783665842,120.30617842295739,-0.34722907889204824,3.3396284776982585,0.4762556682846305
2.0583333333333287,549.2087433076488,29.582534364985523,-95.10662782213736,120.2857731307377,-0.34834790947520805,3.341022583292367,0.4754867889772579
2.066666666666662,549.2199632561793,29.582539053733594,-95.10662780724869,120.26707138195842,-0.349481597855723,3.342362356202436,0.4741652538289175
2.0749999999999953,549.2312310599186,29.58254374179135,-95.10662779199812,120.25045817203065,-0.3506353665390225,3.343639436255239,0.47225073132591305
2.0833333333333286,549.242547690774,29.582548429247446,-95.1066277763918,120.23627090626194,-0.3518153317977886,3.3448434021735567,0.4696877122335663
2.091666666666662,549.2539143456852,29.582553116202263,-95.10662776043644,120.22478914357076,-0.35302837270711257,3.345962486600502,0.4664073639851595
2.099999999999995,549.2653324922939,29.582557802765745,-95.10662774413937,120.2162258590666,-0.3542819824977465,3.3469842592523653,0.4623298711884473
2.1083333333333285,549.2768037906683,29.582562489054645,-95.10662772750874,120.2108805144126,-0.35558410458527373,3.347896274447111,0.45736720445097023
2.116666666666662,549.2883302563721,29.582567175201653,-95.10662771055343,120.20894757071845,-0.3569432146435539,3.3486856897560546,0.4514218135101252
2.124999999999995,549.2999140060718,29.5825718613418,-95.10662769328339,120.21029339596001,-0.35836818716621627,3.3493398643841434,0.4443892853018711
2.1333333333333284,549.3115568824767,29.582576547594968,-95.10662767570983,120.21473877301959,-0.35986772046463494,3.3498484970097775,0.4361685062055096
2.1416666666666617,549.3232606761119,29.582581234077704,-95.10662765784532,120.22132177237759,-0.36145006568213456,3.3502041504757445,0.42666649861781913
2.149999999999995,549.3350258435732,29.582585920841904,-95.10662763970433,120.22955902767694,-0.3631216934919262,3.3504068915735377,0.41582188275322285
2.1583333333333283,549.3468530534509,29.582590607950404,-95.10662762130272,120.23931229729345,-0.36488761967925554,3.3504615923069276,0.4035995573185794
2.1666666666666616,549.3587429710742,29.58259529546527,-95.10662760265784,120.25025789307264,-0.36675213947514407,3.350374629654744,0.3899794674526171
2.174999999999995,549.3706957725577,29.582599983423655,-95.10662758378878,120.26205508037046,-0.36871880694700887,3.350154059430665,0.3749580307524466
2.1833333333333282,549.3827113567916,29.582604671851925,-95.1066275647162,120.27380382910006,-0.37079039409531916,3.349809565524841,0.358549062738274
2.1916666666666615,549.3947884876883,29.58260936072166,-95.10662754546269,120.28536788941064,-0.3729679798805898,3.3493557361618507,0.34079951660298974
2.199999999999995,549.406926552092,29.582614050035442,-95.10662752605188,120.29663923762999,-0.3752518660597211,3.34880758919194,0.3217734616244003
2.208333333333328,549.4191245846135,29.582618739780358,-95.10662750650896,120.30744527911004,-0.37764197666461574,3.348179312403264,0.3015458396133026
2.2166666666666615,549.4313814372235,29.582623429933943,-95.10662748686026,120.31760829364579,-0.38013787104141494,3.347484451268752,0.280201983172901
2.2249999999999948,549.4436957955578,29.58262812046771,-95.10662746713331,120.32693845996612,-0.3827387167914671,3.3467360740102787,0.25783738592864136
2.233333333333328,549.4560661919677,29.582632811345384,-95.10662744735654,120.33533190625272,-0.3854432435515739,3.3459469639955044,0.23455773477239603
2.2416666666666614,549.468491096833,29.58263750252998,-95.10662742755923,120.34268823459458,-0.38824984868603557,3.3451291874750173,0.21047629642476873
2.2499999999999947,549.480968895739,29.582642193979275,-95.10662740777131,120.3485127653696,-0.3911566248397021,3.344294069409966,0.1857126935651406
2.258333333333328,549.4934972176173,29.582646885617688,-95.10662738802334,120.35262339575317,-0.39416071539044023,3.3434547262254157,0.16040313626715108
2.2666666666666613,549.5060739229601,29.582651577380066,-95.10662736834605,120.35500302726298,-0.3972585927980117,3.3426242952185947,0.13469452768245616
2.2749999999999946,549.5186969016156,29.58265626920143,-95.10662734877032,120.35565969100215,-0.40044647186186183,3.341813942421254,0.10873687819950882
2.283333333333328,549.5313639358004,29.58266096101531,-95.10662732932698,120.35462243399353,-0.4037203919485214,3.3410335504001734,0.08268125028230441
2.291666666666661,549.5440728566568,29.582665652756745,-95.10662731004652,120.35195354595626,-0.4070762749585561,3.3402916548377966,0.05667776741373274
2.2999999999999945,549.5568215638169,29.582670344363983,-95.10662729095903,120.34718718016471,-0.4105099774436737,3.3395953876282842,0.03087371473432903
2.308333333333328,549.5696071089335,29.582675035737797,-95.10662727209396,120.34058448774027,-0.41401644035850765,3.338953910625566,0.0054272146387941604
2.316666666666661,549.5824275090538,29.582679726823613,-95.10662725347989,120.33234399539789,-0.4175905403999196,3.338374513304811,359.98049132302054
2.3249999999999944,549.5952806148832,29.582684417560547,-95.10662723514444,120.32267244614604,-0.4212273042120217,3.3378623036804194,359.95621019255367
2.3333333333333277,549.6081644923883,29.5826891078971,-95.1066272171141,120.31180554622068,-0.42492469799640514,3.3374203192228835,359.9327174988091
2.341666666666661,549.6210774260488,29.582693797791812,-95.10662719941402,120.30000473992784,-0.4286809142729152,3.3370496125885696,359.91013454043735
2.3499999999999943,549.6340179090771,29.582698487213918,-95.10662718206797,120.28759296436444,-0.4324915462759367,3.336749339477795,359.88856849404283
2.3583333333333276,549.6469847608296,29.58270317614693,-95.10662716509823,120.27485980104268,-0.436352448582642,3.3365166112307882,359.8681102411736
2.366666666666661,549.6599770126555,29.58270786458347,-95.1066271485255,120.26207685479345,-0.44025985494223074,3.3363468940056666,359.8488343396488
2.3749999999999942,549.6729939339893,29.58271255252665,-95.10662713236877,120.24952862874062,-0.4442103377846475,3.3362343873413103,359.83079937890665
2.3833333333333275,549.6860350584421,29.582717239991396,-95.10662711664543,120.23751868143603,-0.4482008088501425,3.336172158788942,359.8140476505611
2.391666666666661,549.6991002001072,29.582721927004958,-95.10662710137106,120.22632588114499,-0.45222855179012084,3.336152162105791,359.7986044588169
2.399999999999994,549.7121894437812,29.58272661360418,-95.10662708655958,120.2161886642473,-0.4562911984745094,3.336165492002823,359.78447855820883
2.4083333333333274,549.7253030405881,29.582731299834204,-95.10662707222318,120.20732702888856,-0.46038666213178814,3.3362027607936793,359.7716634358678
2.4166666666666607,549.7384414797428,29.582735985748734,-95.10662705837235,120.20003459378471,-0.4645130949986073,3.3362543233804614,359.7601382994518
2.424999999999994,549.7516055733361,29.58274067141578,-95.10662704501597,120.19444302783516,-0.4686690070002228,3.3363098657373373,359.7498664518975
2.4333333333333274,549.7647961791276,29.582745356901572,-95.10662703216127,120.19064776895182,-0.4728530674507481,3.33635935325842,359.7407993495369
2.4416666666666607,549.7780142396659,29.582750042277326,-95.106627019814,120.18869055484967,-0.47706399113734865,3.3363934104589563,359.73287908674246
2.449999999999994,549.7912607757786,29.582754727614606,-95.10662700797839,120.18855585302846,-0.4813004377033787,3.336403637660443,359.7260408688618
2.4583333333333273,549.8045368115531,29.582759412983116,-95.10662699665733,120.19017243678965,-0.4855609113186461,3.336382897719737,359.720215591852
2.4666666666666606,549.8178433091117,29.582764098448816,-95.10662698585236,120.19341731448534,-0.4898436647646918,3.3363255555827656,359.7153324215928
2.474999999999994,549.8311811490385,29.58276878407184,-95.10662697556383,120.1977908245972,-0.4941466128567176,3.336227658535282,359.71132126693544
2.483333333333327,549.8445505661563,29.582773469880273,-95.10662696579082,120.20300318657296,-0.49846672843248246,3.336089113707222,359.7081242027325
2.4916666666666605,549.8579518344205,29.58277815590456,-95.10662695653141,120.20896737117236,-0.5028001988761468,3.3359124477378974,359.7056936088168
2.499999999999994,549.8713852832365,29.58278284217552,-95.10662694778274,120.21549733722087,-0.5071428571015796,3.335700939930451,359.70398609331795
2.508333333333327,549.8848509517381,29.582787528709922,-95.10662693954099,120.22239975000355,-0.5114902031137529,3.3354586859487863,359.70296333628625
2.5166666666666604,549.898348745342,29.582792215518374,-95.10662693180151,120.22947922535931,-0.5158374126165357,3.3351905507721344,359.7025926700254
2.5249999999999937,549.9118784487899,29.58279690260388,-95.10662692455884,120.23654338593559,-0.5201793547147067,3.3349020830066793,359.70284742228483
2.533333333333327,549.9254396641866,29.582801589962116,-95.10662691780678,120.24340755257488,-0.5245106190320841,3.3345994009164643,359.7037070268364
2.5416666666666603,549.9390318860076,29.582806277581753,-95.10662691153837,120.24989896753216,-0.5288255512494477,3.334289057144396,359.7051569128702
2.5499999999999936,549.9526544358707,29.582810965445088,-95.10662690574603,120.25585506577839,-0.5331182958448417,3.3339778888634397,359.70718819031015
2.558333333333327,549.9663065408146,29.582815653528204,-95.10662690042143,120.26112754178409,-0.5373828360249988,3.3336728935686764,359.70979730209507
2.56666666666666,549.9799872843732,29.582820341801792,-95.10662689555568,120.26561068750766,-0.5416130366211831,3.3333811007850547,359.712985540711
2.5749999999999935,549.9936957109453,29.582825030233682,-95.10662689113923,120.26921678109504,-0.5458027313106555,3.3331092807763647,359.7167577249949
2.583333333333327,550.0074307801306,29.582829718788247,-95.10662688716191,120.27188222249077,-0.5499457839662021,3.3328638010259595,359.72112127079174
2.59166666666666,550.0211914091311,29.58283440742799,-95.10662688361295,120.27356751629686,-0.5540361472259884,3.3326504954138914,359.7260852151455
2.5999999999999934,550.03497647601,29.582839096114284,-95.10662688048102,120.27425682996132,-0.5580679186956734,3.3324745517045256,359.7316592219789
2.6083333333333267,550.0487848653555,29.582843784808375,-95.10662687775411,120.2739571965182,-0.5620353941264509,3.332340418201249,359.73785259191635
2.61666666666666,550.0626154780616,29.58284847347225,-95.10662687541969,120.27257540769938,-0.5659331170548406,3.332251729480564,359.74467329574355
2.6249999999999933,550.0764670356449,29.58285316206026,-95.10662687346456,120.26994003005188,-0.569755728921405,3.332212016215281,359.75213042256246
2.6333333333333266,550.0903381095944,29.58285785051892,-95.10662687187488,120.26622135150404,-0.5734977842509092,3.3322253863662,359.76023715000713
2.64166666666666,550.1042276562487,29.582862538814897,-95.10662687063628,120.26152359598831,-0.5771542341285794,3.332294489768466,359.7690022719801
2.6499999999999932,550.1181345960719,29.582867226910967,-95.10662686973382,120.25597171586601,-0.5807204934102589,3.332420610245713,359.77842921604747
2.6583333333333266,550.1320579441083,29.58287191477663,-95.10662686915194,120.2497087233034,-0.5841924793119943,3.332603702967947,359.78851513968203
2.66666666666666,550.1459968752131,29.58287660238723,-95.1066268688745,120.24289273528296,-0.5875666431377056,3.332842440541008,359.7992501473892
2.674999999999993,550.159950678391,29.582881289724572,-95.10662686888487,120.235693642233,-0.5908399958927103,3.333134272274809,359.81061664396134
2.6833333333333265,550.1739188155043,29.58288597677717,-95.10662686916582,120.22828937698634,-0.5940101272933929,3.3334754979454435,359.8225888404769
2.6916666666666598,550.1879008984428,29.582890663540688,-95.10662686969964,120.22086179043892,-0.5970752175227211,3.3338613574774825,359.83513243056046
2.699999999999993,550.2018966760712,29.582895350017793,-95.10662687046816,120.21359699600308,-0.6000340410177462,3.3342861378751225,359.84820445414675
2.7083333333333264,550.2159060929449,29.582900036218504,-95.10662687145285,120.20668101869956,-0.6028859693283115,3.3347432680425513,359.8617532310645
2.7166666666666597,550.2299292436443,29.58290472216008,-95.10662687263476,120.20027444297457,-0.6056309680593955,3.3352254256547287,359.87571845518744
2.724999999999993,550.2439663564684,29.582909407865053,-95.10662687399467,120.19452605457529,-0.608269552215428,3.33572479305842,359.8900320594645
2.7333333333333263,550.2580177934346,29.58291409336177,-95.10662687551321,120.18956466073672,-0.6108027501567453,3.33623323412753,359.9046189746106
2.7416666666666596,550.2720840241894,29.58291877868312,-95.1066268771708,120.18549533411496,-0.6132320599694663,3.336742484102237,359.9193980927535
2.749999999999993,550.2861656096951,29.5829234638655,-95.10662687894786,120.18239637315791,-0.6155593983122396,3.3372443448840174,359.9342834139547
2.758333333333326,550.3002631859343,29.58292814894782,-95.10662688082493,120.18031714283738,-0.6177870430922453,3.3377308799186522,359.94918534636724
2.7666666666666595,550.3143774247587,29.582932833970336,-95.10662688278262,120.17927559965935,-0.6199175717236439,3.338194602311884,359.96401212326117
2.774999999999993,550.3285090241154,29.5829375189733,-95.1066268848019,120.1792269419851,-0.6219537969878182,3.3386286306605295,359.9786712942458
2.783333333333326,550.3426586591205,29.58294220399353,-95.10662688686402,120.18014343650434,-0.6238987024995764,3.339026373409209,359.9930712484386
2.7916666666666594,550.3568269592286,29.582946889068364,-95.10662688895083,120.18195861001911,-0.625755380932194,3.3393822421363826,0.007122704711469613
2.7999999999999927,550.3710145180194,29.582951574230904,-95.1066268910447,120.18458187976958,-0.6275269757895375,3.339691749546707,0.02074013906446196
2.808333333333326,550.3852218442781,29.58295625951048,-95.10662689312872,120.18773690542393,-0.6292139033035042,3.3399515572250045,0.03384286759336318
2.8166666666666593,550.3994490586734,29.582960944919456,-95.10662689518676,120.19125997498746,-0.6308162928300326,3.3401605365590843,0.04636101026266968
2.8249999999999926,550.4136963340624,29.582965630470756,-95.1066268972036,120.19509050449456,-0.632336925873866,3.3403190804046594,0.058234663567474074
2.833333333333326,550.4279637845939,29.58297031617691,-95.10662689916498,120.19911966332835,-0.6337786909501425,3.3404281290350792,0.06941058626904903
2.8416666666666592,550.4422513939594,29.582975002042748,-95.10662690105758,120.20323721334125,-0.6351444387316011,3.3404891861508577,0.07984259449564417
2.8499999999999925,550.4565590349621,29.58297968806955,-95.10662690286924,120.20733429146938,-0.6364369672610332,3.3405042793462045,0.08949181220706182
2.858333333333326,550.4708864825604,29.582984374254437,-95.10662690458884,120.2113060551028,-0.63765901856338,3.340475901269974,0.09832678009129531
2.866666666666659,550.4852334301787,29.582989060590524,-95.10662690620639,120.2150541072056,-0.6388132800711978,3.340406936878773,0.10632342725881302
2.8749999999999925,550.4995994733989,29.58299374706733,-95.10662690771309,120.21848865331934,-0.6399023900289608,3.3403005804354557,0.11346491343925469
2.8833333333333258,550.513984129528,29.582998433670994,-95.10662690910128,120.22152828237863,-0.6409289462778482,3.3401602457710853,0.11974135211661949
2.891666666666659,550.5283868212891,29.58300312038471,-95.10662691036445,120.22410639692943,-0.6418955144589219,3.339989486206367,0.12514948446757299
2.8999999999999924,550.5428069159623,29.583007807189453,-95.10662691149732,120.22617159385153,-0.642804644971531,3.339791884932852,0.12969214434690451
2.9083333333333257,550.5572437384293,29.583012494064462,-95.10662691249563,120.22768573932963,-0.6436588925643971,3.3395709475965933,0.1333776297438968
2.916666666666659,550.5716965679147,29.583017180987774,-95.10662691335634,120.22862493863285,-0.6444608325410859,3.3393300187421158,0.13621908410954595
2.9249999999999923,550.5861646477617,29.583021867936743,-95.10662691407741,120.22897947582557,-0.6452130763216406,3.339072206485834,0.13823384347206713
2.9333333333333256,550.6006472050077,29.583026554888626,-95.10662691465794,120.2286157725617,-0.6459182860739475,3.3388003176668013,0.1394427648284419
2.941666666666659,550.6151432547008,29.58303124181084,-95.10662691509799,120.22751004433219,-0.6465789667095684,3.3385176697470054,0.13987335767052156
2.949999999999992,550.6296518803745,29.5830359286758,-95.10662691539862,120.22572672461634,-0.6471975555901046,3.338227557728442,0.13955770565746653
2.9583333333333255,550.6441722471006,29.5830406154598,-95.10662691556176,120.22331703470914,-0.6477765888004399,3.337932581880878,0.1385292524727735
2.966666666666659,550.6587035101667,29.583045302139226,-95.10662691559025,120.22034620975575,-0.6483187246350489,3.337634656505153,0.13682200040378192
2.974999999999992,550.6732448737812,29.583049988693716,-95.10662691548765,120.2168918546518,-0.648826756132287,3.337335010411399,0.1344697569192505
2.9833333333333254,550.6877956073798,29.583054675106148,-95.10662691525836,120.2130418347651,-0.6493036193264268,3.3370341913951314,0.13150544868799713
2.9916666666666587,550.7023550423683,29.583059361363016,-95.10662691490741,120.20889219874502,-0.64975239806803,3.3367320897893986,0.12796051501072597
2.999999999999992,550.7169225949482,29.583064047454595,-95.10662691444051,120.20454481156503,-0.6501763247707627,3.3364279716556875,0.12386439148205937
3.0083333333333253,550.731497743287,29.58306873337535,-95.10662691386393,120.20010484353689,-0.650578777011196,3.336120524787151,0.11924409392049116
3.0166666666666586,550.7460800764443,29.58307341912374,-95.10662691318454,120.19567813612676,-0.6509632697678114,3.335807916744646,0.11412391130536192
3.024999999999992,550.7606692421814,29.58307810470236,-95.10662691240974,120.1913733560394,-0.6513334431485991,3.3354878644134924,0.10852521473075483
3.033333333333325,550.775264992629,29.58308279011814,-95.10662691154735,120.1872896642803,-0.6516930533263132,3.3351576835865107,0.10246625276760955
3.0416666666666585,550.7898671712373,29.583087475381483,-95.10662691060574,120.18351778970525,-0.6520459462005519,3.334814404729704,0.09596229098139776
3.049999999999992,550.8044756508059,29.58309216050618,-95.10662690959363,120.18013899519366,-0.6523960279154746,3.3344548839452073,0.08902584359806484
3.058333333333325,550.8190904215516,29.58309684550897,-95.10662690852023,120.17722236949719,-0.6527472344352416,3.334075906317515,0.08166697167884698
3.0666666666666584,550.8337114899947,29.583101530409053,-95.10662690739512,120.17482304698058,-0.6531034979576552,3.3336742922280727,0.07389368467553398
3.0749999999999917,550.8483389311452,29.583106215227392,-95.10662690622827,120.17298085168527,-0.6534687107368737,3.3332470032338235,0.06571243103552277
3.083333333333325,550.8629728298002,29.58311089998629,-95.10662690503001,120.17171942159884,-0.653846687171198,3.3327912443414145,0.057128660308562264
3.0916666666666583,550.8776133196766,29.58311558470853,-95.10662690381105,120.17104584870111,-0.6542411251297481,3.332304559476707,0.04814743640370924
3.0999999999999917,550.892260508399,29.58312026941692,-95.10662690258248,120.17095084812755,-0.654655567562501,3.331784917053125,0.03877407960533631
3.108333333333325,550.9069145166399,29.583124954133552,-95.1066269013557,120.17140944549816,-0.6550933654612278,3.33123078280657,0.029014813847305542
3.1166666666666583,550.9215754324562,29.58312963887929,-95.10662690014244,120.17238214799852,-0.655557643210449,3.3306411774900266,0.01887739566230523
3.1249999999999916,550.9362433112909,29.583134323673146,-95.10662689895483,120.17381654283133,-0.6560512672882932,3.3300157175818224,0.008371702190827867
3.133333333333325,550.9509181629253,29.583139008531912,-95.10662689780523,120.1756492499378,-0.656576819150541,3.3293546378288186,359.99751025759423
3.141666666666658,550.9655999580077,29.58314369346968,-95.10662689670629,120.177808142554,-0.6571365729665809,3.328658795173123,359.9863086800376
3.1499999999999915,550.9802885954293,29.583148378497633,-95.106626895671,120.1801010232301,-0.6577352044151027,3.3279296567272856,359.9747862661488
3.1583333333333248,550.9949837294789,29.583153063615296,-95.1066268947125,120.18249551795373,-0.6583768470125388,3.3271699848551943,359.96296915352775
3.166666666666658,551.0096851612062,29.58315774882861,-95.1066268938442,120.18491566935644,-0.65906243633055,3.326382689695911,359.95088651986157
3.1749999999999914,551.0243925579441,29.58316243413641,-95.10662689307965,120.18730414513512,-0.6597924865309119,3.325570667496991,359.9385705847083
3.1833333333333247,551.0391055413643,29.58316711953664,-95.10662689243253,120.18960061572696,-0.660567238651623,3.3247370520826123,359.9260565053019
3.191666666666658,551.0538236940032,29.583171805024488,-95.1066268919166,120.19174875233985,-0.6613866739047829,3.3238851711451063,359.9133821921991
3.1999999999999913,551.068546539689,29.583176490593168,-95.10662689154564,120.19369746192112,-0.6622505228113292,3.323018489784531,359.90058805703967
3.2083333333333246,551.0832735728994,29.58318117623399,-95.10662689133348,120.19540201588461,-0.6631582766583531,3.322140551062025,359.88771669914547
3.216666666666658,551.0980042457115,29.583185861936684,-95.10662689129376,120.19682544272685,-0.6641092013512148,3.3212549152421893,359.8748125368025
3.224999999999991,551.1127379808505,29.58319054768972,-95.1066268914401,120.19793867102773,-0.6651023539958337,3.32036509640758,359.8619213786856
3.2333333333333245,551.1274741879953,29.58319523348055,-95.1066268917859,120.19870532002933,-0.6661366004373623,3.3194745042961205,359.84908996938964
3.241666666666658,551.1422122376891,29.58319991929485,-95.10662689234431,120.19901638097483,-0.6672106086428394,3.3185864896040154,359.8363659457182
3.249999999999991,551.1569513406632,29.58320460511158,-95.10662689312824,120.19889582010475,-0.6683227293524282,3.3177048219280527,359.8237997341983
3.2583333333333244,551.1716908707208,29.58320929091655,-95.10662689415018,120.19834807732619,-0.6694711660872834,3.3168329200914797,359.8114414062819
3.2666666666666577,551.1864301364383,29.583213976692853,-95.1066268954223,120.19738817321739,-0.6706540078939381,3.31597382983716,359.79934007865546
3.274999999999991,551.201168472479,29.58321866242492,-95.10662689695623,120.1960410086284,-0.671869253410091,3.315130189109254,359.78754332316186
3.2833333333333243,551.2159052428666,29.583223348098283,-95.10662689876318,120.19434049152298,-0.673114833205361,3.3143042016632567,359.77609660598443
3.2916666666666576,551.2306398377083,29.58322803369998,-95.10662690085375,120.19232849260067,-0.6743886304827139,3.3134976203348283,359.7650427662174
3.299999999999991,551.2453717090849,29.583232719218834,-95.106626903238,120.1900536489213,-0.6756884998905417,3.312711739971986,359.75442154292676
3.3083333333333242,551.2601003286425,29.583237404645615,-95.10662690592525,120.18757003567258,-0.6770122842157799,3.3119473998905167,359.7442691589096
