time,altitude_ft,vc_kts,roll_deg,pitch_deg,yaw_deg,lat_deg,lon_deg
0.008333333333333333,3.86263880469451e-06,3.7031147586791904,3.221272536958714e-18,1.2722218725855517e-14,3.2566492211871996e-21,0.0,-4.294718150238113e-18
0.016666666666666666,0.09982948773909744,4.1080264657514185,-3.889565936197317e-11,-0.13201035593871255,3.5850417627646944e-08,4.36794683495251e-14,-3.0834696803473223e-13
0.025,0.14112744156288254,5.211421743925556,-5.355416465084655e-10,-0.4035657721805846,2.0401282930276277e-07,9.512596282729373e-10,1.2598002596923134e-13
0.03333333333333333,0.2262760721342193,5.576922047877298,-1.1933317883644693e-09,-0.5179656097273525,2.2760523262296118e-07,3.2470170379849387e-09,-3.4549945868174397e-13
0.041666666666666664,0.3029635680298976,5.832939970507266,-1.4899141425242532e-08,-0.666806940631631,1.9096164735617437e-07,3.2079306850942053e-09,3.722798019132274e-13
0.049999999999999996,0.38615955237378,5.913307398615401,-3.176914591964341e-08,-0.7409102715197822,6.617419465900525e-08,5.7423950941596686e-09,-2.1921754642758333e-13
0.05833333333333333,0.46886882012203124,5.8951866448180015,-7.623466953122731e-08,-0.7815555703959347,359.99999993065046,5.325551120150367e-09,5.009176260055483e-13
0.06666666666666667,0.5510799306226314,5.834939232203707,-1.254597413440286e-07,-0.7910580217728113,359.99999978748195,6.453626404059855e-09,-7.856717294139455e-14
0.075,0.6324787086286912,5.75129769705748,-2.1548559163704422e-07,-0.7909852803829658,359.99999964433385,7.016021481462537e-09,6.259027296535316e-13
0.08333333333333333,0.712646409757628,5.657190460407338,-2.953106622980939e-07,-0.790453955324389,359.99999978713936,7.567497634782495e-09,-3.013766365479784e-13
0.09166666666666666,0.7914927806418297,5.553445790757549,-4.5286396207002296e-07,-0.7913426129063295,359.99999988240637,8.060027960493663e-09,9.302501183948728e-13
0.09999999999999999,0.8688171475459816,5.4401936040001475,-5.709561899721217e-07,-0.7933593115779863,359.99999999189157,8.505380177600064e-09,-5.944628189539884e-13
0.10833333333333332,0.9444826078844986,5.319957162409871,-8.101203593554493e-07,-0.7962648877307273,4.246139407875195e-08,8.911269756892637e-09,1.2042215610055463e-12
0.11666666666666665,1.018422679432475,5.194560680710955,-9.683707859619994e-07,-0.7998784992816358,1.193797097294518e-07,9.281807242751892e-09,-8.833494926842997e-13
0.12499999999999999,1.0905735193857602,5.065545456641051,-1.2963825266243356e-06,-0.8040671153439976,1.2716402779714777e-07,9.621001075076951e-09,1.4454427944113203e-12
0.13333333333333333,1.1608933879883807,4.934197518321036,-1.5167324067353208e-06,-0.8087377672941802,1.643893343597429e-07,9.931580461589702e-09,-8.509848037673276e-13
0.14166666666666666,1.229357019741005,4.80158590600542,-1.9200002042676685e-06,-0.8138310125621443,1.3569666440025012e-07,1.0215370874421675e-08,1.4878757260533685e-12
0.15,1.2959528073687052,4.668599255694828,-2.1952268197908545e-06,-0.8192487223524522,1.3821776598720115e-07,1.0595148820859415e-08,-7.715647156407026e-13
0.15833333333333333,1.360680744580092,4.53595563052625,-2.66587301336078e-06,-0.824996115110443,7.790808679866978e-08,1.0939558320206752e-08,1.5132884621577587e-12
0.16666666666666666,1.4235496590966346,4.4042504441912875,-2.9910622768262726e-06,-0.8310807241161839,4.900865289003826e-08,1.1309600695284808e-08,-7.035051740507602e-13
0.175,1.484576221644598,4.273966063073278,-3.521628198813357e-06,-0.8375247706984139,359.9999999596868,1.1695877977126454e-08,1.5165846953503298e-12
0.18333333333333332,1.5437831274735354,4.145491476138,-3.891531034676319e-06,-0.8443620171404108,359.99999990165446,1.2100165731038138e-08,-6.492643720895008e-13
0.19166666666666665,1.601198023582965,4.0191369605744525,-4.473653540978889e-06,-0.8516354085255915,359.9999997857307,1.2524275200109185e-08,1.4970845862901675e-12
0.19999999999999998,1.6568524392200314,3.895146596154055,-4.8541737253090395e-06,-0.8593951094225065,359.99999970728345,1.2970219811094635e-08,-8.538978376735758e-13
0.20833333333333331,1.7107809420521614,3.7737089098961283,-5.495717278581839e-06,-0.8676968770037545,359.9999995639428,1.3440165092457684e-08,1.5814239255799707e-12
0.21666666666666665,1.76302043170711,3.6549658820843733,-5.887525817724847e-06,-0.8766007172645871,359.999999465047,1.3936390252235313e-08,-1.0947995365080762e-12
0.22499999999999998,1.8136095183500411,3.5390205580582212,-6.583199065408474e-06,-0.8861697790873888,359.9999992962152,1.4461255881741965e-08,1.6236812170277412e-12
0.2333333333333333,1.8625880418985623,3.4259435083562377,-6.98124308115839e-06,-0.8964694478026267,359.99999917819866,1.5017176934018828e-08,-1.3243682367432157e-12
0.24166666666666664,1.9099966304856277,3.3157782803399445,-7.721835385179127e-06,-0.9075666063434015,359.99999898646905,1.5606600218052125e-08,1.6293507428227826e-12
0.24999999999999997,1.9558763864777755,3.211029634062289,-8.119752739338903e-06,-0.9195290367651546,359.99999885100885,1.623198567422766e-08,-1.5397205343034449e-12
0.2583333333333333,2.0003355062759813,3.1105111992565146,-8.89573254657107e-06,-0.9316563468044503,359.9999987881174,1.6899481919050864e-08,1.6104819152863093e-12
0.26666666666666666,2.043403501050523,3.0125923390497005,-9.288294904298965e-06,-0.9431664080439482,359.9999988746647,1.761064380611956e-08,-1.7302568132533528e-12
0.275,2.0851028304506705,2.917432078430181,-1.0088169577828825e-05,-0.953728597633385,359.9999988168639,1.8366615709613003e-08,1.5573541785673331e-12
0.2833333333333334,2.12548389198027,2.824889079976535,-1.0495159765042418e-05,-0.9631804661442936,359.99999875478875,1.9170118883348482e-08,-1.7358738886788677e-12
0.29166666666666674,2.164580713549711,2.734895342033554,-1.1294071084351357e-05,-0.9714553856158445,359.99999870119296,2.0022936569896346e-08,1.395378004299309e-12
0.3000000000000001,2.2024299101435623,2.647890354957681,-1.1701925007613463e-05,-0.9788353041083863,359.999998643119,2.0626843575381986e-08,-1.7126524069307302e-12
0.30833333333333346,2.2390787263392258,2.5632390022735403,-1.2488157683932692e-05,-0.9851446555250045,359.9999986696683,2.1299357727342426e-08,1.2338510113606187e-12
0.3166666666666668,2.2745499226505648,2.481095524885475,-1.288938164782718e-05,-0.9903883395764085,359.9999986151519,2.1876855777769228e-08,-1.694248324673447e-12
0.3250000000000002,2.3088843822355165,2.401352710163423,-1.3653786127073087e-05,-0.994565149479896,359.99999856859984,2.2399860975901136e-08,1.0646817375078062e-12
0.33333333333333354,2.3421135916800595,2.3239795457421653,-1.4043535465851183e-05,-0.9976964225953294,359.9999985172929,2.2859338863748797e-08,-1.676116458942495e-12
0.3416666666666669,2.374271101342372,2.2489297450821693,-1.4779247004773172e-05,-0.9998122234209839,359.99999847360135,2.325457880957982e-08,8.932514687874055e-13
0.35000000000000026,2.405389169670321,2.176156973967609,-1.515323526217518e-05,-1.0009479674668271,359.99999842520174,2.3583871955778435e-08,-1.6604116587514725e-12
0.3583333333333336,2.4354994762025837,2.1056128393350564,-1.5854528661251804e-05,-1.0011421574900663,359.9999983840137,2.3845564226849165e-08,7.229332559177823e-13
0.366666666666667,2.4646330169082913,2.0372471660160287,-1.618787921590258e-05,-1.0004350779444673,359.9999984413505,2.4038043503272398e-08,-1.7641560013208824e-12
0.37500000000000033,2.492820032233061,1.9710084490228044,-1.6861771893145827e-05,-0.9988679732095744,359.9999984025804,2.4159740167645495e-08,6.14686525222335e-13
0.3833333333333337,2.5200900627002776,1.9068442062477382,-1.715924375307694e-05,-0.9964824851823019,359.9999984554267,2.420912769191608e-08,-1.875772351919679e-12
0.39166666666666705,2.546471876957114,1.844701350649223,-1.7803384591166557e-05,-0.99332024584105,359.99999841883556,2.4184723051738647e-08,4.978842118614037e-13
0.4000000000000004,2.5719935110225434,1.7845265377856427,-1.8065090471034592e-05,-0.9894225719175889,359.9999984674383,2.408508679281979e-08,-1.972501956130022e-12
0.40833333333333377,2.596682222498521,1.726266423484779,-1.8675564261906798e-05,-0.9848302254561281,359.99999843281114,2.3908822862055423e-08,3.7707974763098997e-13
0.41666666666666713,2.620564542900529,1.6698679313378182,-1.89009369842745e-05,-0.9795832285385732,359.9999984773704,2.3654578303523897e-08,-2.0538489420064242e-12
0.4250000000000005,2.643666231868755,1.6152784390731092,-1.947391945728107e-05,-0.9737207151481373,359.99999844444767,2.3321042720166567e-08,2.5527638036932157e-13
0.43333333333333385,2.6660123131453792,1.5624459630727112,-1.96625379927278e-05,-0.967280817760429,359.99999848522793,2.2906947670161914e-08,-2.120099066467125e-12
0.4416666666666672,2.687627090927999,1.511319283468455,-2.0194956580135775e-05,-0.9603005786861618,359.99999845380614,2.241106590746746e-08,1.348722258582468e-13
0.45000000000000057,2.708534140057862,1.4618480730050651,-2.0346584575466685e-05,-0.9528158844305563,359.99999849102954,2.1832210586906595e-08,-2.171702754542646e-12
0.4583333333333339,2.728756322373248,1.41398297909163,-2.0835993004167327e-05,-0.9448614196569801,359.9999984609531,2.1169234359863408e-08,1.7925480019865905e-14
0.4666666666666673,2.748315806333503,1.367675703214152,-2.0950855469623885e-05,-0.9364706356194458,359.99999849484544,2.0421028461622273e-08,-2.2092582901531217e-12
0.47500000000000064,2.767234086643067,1.3228790639822654,-2.1395493826428728e-05,-0.9276757311137825,359.99999846597444,1.958652173543071e-08,-9.376184624414908e-14
0.483333333333334,2.7855320006048245,1.2795470260240405,-2.147406610894854e-05,-0.9185076452079234,359.999998495617,1.8664679637789487e-08,-2.2334716607428074e-12
0.49166666666666736,2.8032297084963482,1.237634734997455,-2.1872844763037205e-05,-0.908996059290096,359.99999846783624,1.765450325108155e-08,-1.9864423833025558e-13
0.5000000000000007,2.8203467720655384,1.1970985492073196,-2.1929937939436913e-05,-0.8991694069132808,359.99999843542747,1.655502827156815e-08,-2.177227996801614e-12
0.508333333333334,2.836902112012323,1.157896042768907,-2.2274898385811775e-05,-0.889054887520385,359.99999840852325,1.536532398628077e-08,-3.284992211211065e-13
0.5166666666666673,2.8529140603190877,1.1199860219166144,-2.2305705302822796e-05,-0.8786784891849351,359.9999983774947,1.4084492280998747e-08,-2.105901479739284e-12
0.5250000000000006,2.8684003700627216,1.083328509382637,-2.259616909272728e-05,-0.8680650113284544,359.9999983513875,1.2711666627267208e-08,-4.400461581776428e-13
0.5333333333333339,2.883378212144057,1.0478847519871173,-2.2599605085988233e-05,-0.8572380931751179,359.999998321645,1.12460111182131e-08,-2.0325036932953265e-12
0.5416666666666672,2.8978642178063327,1.0135704790542353,-2.2836870270651045e-05,-0.8462202442949786,359.9999982962947,9.686719481497996e-09,-5.344486213807172e-13
0.5500000000000005,2.9118744884472396,0.9802199710925351,-2.281295835103206e-05,-0.8349157089875647,359.99999827246376,8.11919320076421e-09,-1.956891136485149e-12
0.5583333333333338,2.9254200069046283,0.9479509489430924,-2.2999010123636034e-05,-0.823374995297486,359.99999825230066,6.480165675940499e-09,-6.121246624266383e-13
0.5666666666666671,2.9385190757179966,0.9166892253254474,-2.2948126677089907e-05,-0.8116079845738774,359.99999822914083,4.816759728456089e-09,-1.879293224050773e-12
0.5750000000000004,2.9511838813205613,0.8864540968568583,-2.308533408139752e-05,-0.7996588752713318,359.99999821332773,3.1115975975239886e-09,-6.734873524880377e-13
0.5833333333333337,2.9634298088350333,0.8571980435747829,-2.3008114898050794e-05,-0.7875471883105288,359.9999981908441,1.3835888374836353e-09,-1.7995007745284499e-12
0.591666666666667,2.9752697347989603,0.8289102123636447,-2.309907380393214e-05,-0.7753040096056368,359.9999981811691,-3.7312680968261286e-10,-7.190808124077949e-13
0.6000000000000003,2.9867175431076345,0.8015527293074098,-2.2996444636628675e-05,-0.7629484062014368,359.9999981613648,-2.1489742355157192e-09,-1.7172700541652305e-12
0.6083333333333336,2.9977858257510603,0.7751035800575221,-2.3043712783432747e-05,-0.750503467674823,359.99999814402764,-3.94495930606194e-09,-7.504723466398369e-13
0.6166666666666669,3.00848736441594,0.749530095942904,-2.2916772031866237e-05,-0.7379865197926914,359.9999981247253,-5.755648694181773e-09,-1.6321742954501946e-12
0.6250000000000002,3.0188341525630507,0.7248067303575696,-2.2923065837144476e-05,-0.7254160028906235,359.99999810760585,-7.580121407062233e-09,-7.6798755610578e-13
0.6333333333333335,3.02883805609745,0.7009040914631249,-2.2772921507112755e-05,-0.7128073992042195,359.99999808882757,-9.414829091501019e-09,-1.5444270377530848e-12
0.6416666666666668,3.0385103816434462,0.677796253572559,-2.2741043411647718e-05,-0.7001761522557388,359.99999807196474,-1.1258168367387855e-08,-7.723844122851966e-13
0.6500000000000001,3.0478621709026434,0.6554562390427762,-2.256909881648282e-05,-0.6875359961918831,359.99999805371846,-1.3107509688375753e-08,-1.4540469579716176e-12
0.6583333333333334,3.056904040392416,0.633858986425913,-2.2501902214273014e-05,-0.6749001919015029,359.99999803716014,-1.4961087047225715e-08,-7.645117809656091e-13
0.6666666666666667,3.0656462991891025,0.6129794994161566,-2.2309601017047656e-05,-0.6622808614272973,359.9999980194515,-1.6816771878800366e-08,-1.361091331960513e-12
0.675,3.0740988704326044,0.5927940271120036,-2.220995024935206e-05,-0.6496895176089169,359.99999800323883,-1.8672846185050486e-08,-7.45266776622288e-13
0.6833333333333333,3.0822713959870183,0.5732793116134223,-2.199877933800242e-05,-0.6371368121282015,359.9999979860842,-2.052749952166234e-08,-1.2656479412018117e-12
0.6916666666666667,3.090173164486508,0.554413032043525,-2.1869454690281618e-05,-0.6246327707584439,359.99999797025254,-2.2379141643783395e-08,-7.15546202442036e-13
0.7,3.097813166936243,0.5361735069219637,-2.1640944893555366e-05,-0.6121867097249847,359.9999979536594,-2.4226196567081435e-08,-1.16785063689993e-12
0.7083333333333333,3.105200093441825,0.5185398369152264,-2.148476197177658e-05,-0.5998073440477724,359.9999979436461,-2.6067224481774708e-08,-6.75946163287142e-13
0.7166666666666666,3.1123423528331466,0.5014917868050923,-2.124050484380373e-05,-0.5875027894252305,359.99999792761986,-2.790085047738501e-08,-1.0680380937522528e-12
0.7249999999999999,3.119248066123137,0.4850098118590179,-2.1060204293744216e-05,-0.5752805817522395,359.99999792086925,-2.9725778225398494e-08,-6.274851735586022e-13
0.7333333333333332,3.1259250894022714,0.46907503917153426,-2.0801887608064725e-05,-0.5631477449603898,359.9999979126564,-3.154081180796298e-08,-9.659021426612328e-13
0.7416666666666665,3.132381020379914,0.45366918666987877,-2.059992464071911e-05,-0.5511107689767816,359.999997906538,-3.334480420168146e-08,-5.713884388364707e-13
0.7499999999999998,3.1386232016549305,0.4387746262324105,-2.0329059518682732e-05,-0.539175675289657,359.99999789980893,-3.5136705066666483e-08,-8.619016131400792e-13
0.7583333333333331,3.144658723986392,0.4243742772904051,-2.010791521300588e-05,-0.5273480118154799,359.99999789380627,-3.6915517018219255e-08,-5.083526080251293e-13
0.7666666666666664,3.15049446227066,0.4104516740663757,-1.9826143735339003e-05,-0.515632895525092,359.9999978873126,-3.8680321325461656e-08,-7.564405490868325e-13
0.7749999999999997,3.1561370461055964,0.3969908657876257,-1.958838344710201e-05,-0.5040350204416634,359.9999978813464,-4.043025736905719e-08,-4.3923246123293974e-13
0.783333333333333,3.161592895767666,0.38397646113781286,-1.92973258030246e-05,-0.492558686959915,359.9999978750056,-4.216453016726802e-08,-6.49796613947012e-13
0.7916666666666663,3.1668682058587194,0.3713935589010671,-1.9045119206514575e-05,-0.48120781647737654,359.99999786911536,-4.388240260926592e-08,-3.647620011874743e-13
0.7999999999999996,3.1719689780124805,0.3592277788937154,-1.8746294425853896e-05,-0.4699859732731263,359.999997862925,-4.5583195164642126e-08,-5.422848249947564e-13
0.8083333333333329,3.1769010045412887,0.3474652020748285,-1.8481884291036194e-05,-0.4588963806752239,359.9999978571317,-4.726628307147363e-08,-2.8571258444265784e-13
0.8166666666666662,3.1816699044132237,0.33609238981792816,-1.817685620743421e-05,-0.44794193879765976,359.99999785110674,-4.8931093546768684e-08,-4.3420961591979604e-13
0.8249999999999995,3.1862810905456715,0.3250963277455109,-1.7902340743969027e-05,-0.43712524120525964,359.99999784543945,-5.0577104062050825e-08,-2.0280140449970408e-13
0.8333333333333328,3.1907397992411113,0.31446446341440604,-1.7592514062693465e-05,-0.42644859084550085,359.99999783960044,-5.220383956813949e-08,-3.258461599133739e-13
0.8416666666666661,3.1950510901871527,0.30418464174999416,-1.7309779346422063e-05,-0.4159140142693686,359.99999783408254,-5.381087121505389e-08,-1.1668526616946556e-13
0.8499999999999994,3.1992198726216694,0.29424513169535166,-1.699647739554992e-05,-0.40552327720013726,359.9999978284402,-5.5397812743171525e-08,-2.1747274298615013e-13
0.8583333333333327,3.2032508693557324,0.2846345784464858,-1.6707360840309463e-05,-0.39527789780313644,359.9999978230822,-5.69643205174779e-08,-2.801101324091794e-14
0.866666666666666,3.207148672374576,0.2753420144875409,-1.6391972352520803e-05,-0.3851791596927504,359.9999978176394,-5.8510089429668736e-08,-1.094018921584058e-13
0.8749999999999993,3.210917693777921,0.26635683293498524,-1.6098233088216613e-05,-0.37522812504662945,359.999997812457,-6.003485289620733e-08,6.2623693038286e-14
0.8833333333333326,3.2145622181102946,0.25766878151649497,-1.578205982687012e-05,-0.3654256467487049,359.9999978072194,-6.153837926325667e-08,-1.9311929194843425e-15
0.8916666666666659,3.2180863827371877,0.249267946245259,-1.5485330179450866e-05,-0.3557723800732364,359.99999780222424,-6.302047172729992e-08,1.5465605499408966e-13
0.8999999999999992,3.2214941745743833,0.24114475829518006,-1.516942872610487e-05,-0.34626879376222947,359.99999779720946,-6.448096495243564e-08,1.0472706048198596e-13
0.9083333333333325,3.224789469335722,0.23328996070893432,-1.4871089101917578e-05,-0.33691518040252416,359.99999779240625,-6.591972516715403e-08,2.4758117338658307e-13
0.9166666666666659,3.2279760053679403,0.2256945957654238,-1.455658476855903e-05,-0.327711666414137,359.9999977876064,-6.73366468542146e-08,2.1028586614047765e-13
0.9249999999999992,3.231057386921308,0.2183500158473879,-1.4258042543280386e-05,-0.31865822298069607,359.9999977829981,-6.873165237793086e-08,3.409171838368292e-13
0.9333333333333325,3.2340371135854395,0.21124786316752128,-1.3945999993292688e-05,-0.3097546742143671,359.99999777841384,-7.010469011204036e-08,3.1449308572306526e-13
0.9416666666666658,3.236918557394797,0.20438005042800222,-1.3648456955703381e-05,-0.3010007064471574,359.99999777401,-7.145573286739122e-08,4.342600424414366e-13
0.9499999999999991,3.2397049791818993,0.19773876814522579,-1.3339776283020916e-05,-0.29239587717386095,359.9999977696397,-7.278477665433665e-08,4.171252188313536e-13
0.9583333333333324,3.2423995416599043,0.19131646866747368,-1.3044367322235356e-05,-0.283939622645051,359.9999977654381,-7.409183951861904e-08,5.272063278608272e-13
0.9666666666666657,3.245005283257461,0.1851058491910507,-1.2739886670350419e-05,-0.2756312657952464,359.99999776128084,-7.537695986435767e-08,5.17979932235822e-13
0.974999999999999,3.2475251639077403,0.17909986009957723,-1.244754300871002e-05,-0.26747002401745246,359.9999977572856,-7.664019558558038e-08,6.194335520497667e-13
0.9833333333333323,3.2499620258006816,0.17329168088525929,-1.2147989014637283e-05,-0.259455015743477,359.99999775333424,-7.788162279750229e-08,6.168679665463834e-13
0.9916666666666656,3.252318639172047,0.16767471850032928,-1.1859784112226818e-05,-0.25158526872768844,359.99999774823664,-7.910133504542311e-08,7.104685665226354e-13
0.9999999999999989,3.2545976467024413,0.16224260290435252,-1.1565984715119231e-05,-0.24385972180797041,359.9999977444905,-8.029943962056788e-08,7.136374162006965e-13
1.0083333333333322,3.256801632200851,0.15698918880971616,-1.128272229503364e-05,-0.23627724078219278,359.99999773967085,-8.147606323624355e-08,8.001196216325661e-13
1.0166666666666655,3.258933087898223,0.1519085111528687,-1.0995284415399005e-05,-0.22883661135146266,359.9999977349556,-8.263134098900345e-08,8.080106177478953e-13
1.0249999999999988,3.2609944242593722,0.1469948275048728,-1.0717664674475018e-05,-0.22153655790490723,359.99999772826015,-8.376542661901637e-08,8.880611165148968e-13
1.033333333333332,3.262987953629776,0.14224257618582728,-1.0437055421887816e-05,-0.2143757358455553,359.9999977217345,-8.487847971292201e-08,8.998836030376886e-13
1.0416666666666654,3.264915929483301,0.13764638668451784,-1.016563342463686e-05,-0.20735274866692907,359.99999771542235,-8.597067692091727e-08,9.742245691551762e-13
1.0499999999999987,3.2667805300689876,0.1332010665710379,-9.892293772903994e-06,-0.20046614441460556,359.9999977092741,-8.704220091429336e-08,9.891872674923076e-13
1.058333333333332,3.2685838551404083,0.12890159900090012,-9.627718168501106e-06,-0.19371442518674342,359.9999977033229,-8.809324654009513e-08,1.0583211099526275e-12
1.0666666666666653,3.2703279292263,0.1247431285581074,-9.362202081842624e-06,-0.1870960485773572,359.99999769753174,-8.912401596127536e-08,1.0758058142484236e-12
1.0749999999999986,3.272014724525097,0.1207209692516305,-9.104928435450903e-06,-0.18060943352129175,359.999997691928,-9.013472017625489e-08,1.140220000512049e-12
1.083333333333332,3.2736461347397454,0.11683060091822937,-8.847473089547343e-06,-0.17425296349729227,359.99999768647797,-9.112557705908427e-08,1.1596857028225828e-12
1.0916666666666652,3.2752239979722595,0.11306762559777657,-8.597853668569339e-06,-0.1680249903877221,359.9999976812024,-9.209681159647335e-08,1.2197736932153231e-12
1.0999999999999985,3.276750083641096,0.1094278236071505,-8.348759154882485e-06,-0.16192383865378532,359.99999767607505,-9.304865418834675e-08,1.2407472450513047e-12
1.1083333333333318,3.2782261055637627,0.10590710443884159,-8.107106622316948e-06,-0.15594780792930146,359.9999976711127,-9.39813415919548e-08,1.2968800876016441e-12
1.1166666666666651,3.279653718686174,0.10250151408004661,-7.866554728936792e-06,-0.1500951757546329,359.99999766628963,-9.489511479814696e-08,1.3189524645455395e-12
1.1249999999999984,3.2810345387065047,0.09920723738083796,-7.633118599184762e-06,-0.14436420204392802,359.9999976616214,-9.579021933088085e-08,1.371437083209968e-12
1.1333333333333317,3.2823700962861606,0.0960205740989726,-7.401299600493084e-06,-0.13875313084878776,359.99999765708645,-9.666690480308872e-08,1.3942534238951119e-12
1.141666666666665,3.283661905733351,0.09293795582732148,-7.176327234895957e-06,-0.1332601937615602,359.9999976526965,-9.752542364857418e-08,1.4433531631636597e-12
1.1499999999999984,3.2849113995901615,0.08995593844900895,-6.953379399486161e-06,-0.12788361244644014,359.9999976484355,-9.836603172405454e-08,1.4666270882416564e-12
1.1583333333333317,3.2861199875041742,0.08707118095064349,-6.737030562336583e-06,-0.12262160025262037,359.99999764430805,-9.918898709678677e-08,1.5125679387759644e-12
1.166666666666665,3.2872890137100654,0.08428047119917773,-6.523074640837737e-06,-0.11747236520373233,359.9999976403029,-9.999454990142892e-08,1.5360417068333356e-12
1.1749999999999983,3.28841979627739,0.0815806881652316,-6.315375476778495e-06,-0.112434111670063,359.9999976364257,-1.0078298212080294e-07,1.5790820326124845e-12
1.1833333333333316,3.2895135878627784,0.0789688238341382,-6.110319818175128e-06,-0.10750504313476664,359.9999976326634,-1.0155454655438793e-07,1.6025284078620513e-12
1.1916666666666649,3.29057161495774,0.07644196529224097,-5.911293650437906e-06,-0.10268336377878538,359.9999976290201,-1.0230950747995226e-07,1.642855600591512e-12
1.1999999999999982,3.29159505826475,0.07399731602355256,-5.715140163211854e-06,-0.09796727979171772,359.99999762548583,-1.0304812939865217e-07,1.6661046231158483e-12
1.2083333333333315,3.2925850625091906,0.07163215076944623,-5.5248016249110026e-06,-0.09335500122506217,359.99999762206215,-1.0377067747716123e-07,1.703886152459256e-12
1.2166666666666648,3.293542723356795,0.06934383185488167,-5.337461797851394e-06,-0.08884474380165137,359.9999976187438,-1.044774164793801e-07,1.7268095741156251e-12
1.224999999999998,3.2944691201200675,0.06712983725631673,-5.1557060799937485e-06,-0.08443473096482974,359.999997615528,-1.0516861106506698e-07,1.7621967230776163e-12
1.2333333333333314,3.295365273239919,0.06498770193139564,-4.97712578187145e-06,-0.08012319394315494,359.99999761241054,-1.0584452564611969e-07,1.7846513541920254e-12
1.2416666666666647,3.2962321868040347,0.06291506421496605,-4.803938392483065e-06,-0.07590837369568769,359.9999976093892,-1.065054234045286e-07,1.8177922929580915e-12
1.249999999999998,3.2970708191110853,0.060909627679749855,-4.634060796554228e-06,-0.07178852200324648,359.99999760645983,-1.0715156708140013e-07,1.8396610915361907e-12
1.2583333333333313,3.297882108835877,0.05896917863638307,-4.4693353940314825e-06,-0.06776190306934651,359.999997603623,-1.0778321748804593e-07,1.8707102159297113e-12
1.2666666666666646,3.298666955405488,0.05709157100141214,-4.308018215699353e-06,-0.06382679388314773,359.9999976008713,-1.0840063499032656e-07,1.8918804979237388e-12
1.274999999999998,3.299426225540558,0.0552747366269445,-4.151597634536234e-06,-0.05998148524736475,359.9999975982078,-1.0900407743878688e-07,1.920999674533597e-12
1.2833333333333312,3.30016076306721,0.05351668656400335,-3.998567615561033e-06,-0.05622428330845296,359.9999975956233,-1.0959380162683252e-07,1.9414116738188815e-12
1.2916666666666645,3.3008713791051205,0.051815472907236676,-3.850334026268515e-06,-0.05255350899562496,359.999997593119,-1.1017006230083488e-07,1.968663159025655e-12
1.2999999999999978,3.3015588716914133,0.050169232964362674,-3.70545410923666e-06,-0.04896750036003663,359.9999975906918,-1.1073311174608218e-07,1.9883162530386133e-12
1.3083333333333311,3.3022239930741666,0.04857615562843315,-3.56515051346463e-06,-0.04546461249531154,359.99999758833957,-1.1128320073539585e-07,2.013799657050881e-12
1.3166666666666644,3.302867475877626,0.04703449574254499,-3.4282611969501466e-06,-0.042043218127227895,359.9999975860578,-1.1182057705444869e-07,2.0326185155717496e-12
1.3249999999999977,3.30349003964343,0.045542573684685284,-3.29576333902586e-06,-0.038701708575523505,359.9999975838474,-1.1234548658904062e-07,2.05645212551206e-12
1.333333333333331,3.304092371206793,0.04409875102057494,-3.166542181190215e-06,-0.035438492920803505,359.99999758170514,-1.1285817272759599e-07,2.0744523126360244e-12
1.3416666666666643,3.304675127967132,0.04270144510036779,-3.041532668392009e-06,-0.03225200037924352,359.9999975796277,-1.1335887555477902e-07,2.09670212026756e-12
1.3499999999999976,3.305238960782576,0.04134913929356827,-2.919827572083669e-06,-0.02914067991766208,359.99999757761293,-1.1384783338360024e-07,2.113843169347673e-12
1.358333333333331,3.305784481263521,0.040040351191807974,-2.8021540796981445e-06,-0.02610300010693555,359.99999757566013,-1.1432528096622407e-07,2.134615633080643e-12
1.3666666666666643,3.3063122977497224,0.03877366803306901,-2.6877578194628373e-06,-0.02313745029291999,359.99999757376577,-1.1479145067069003e-07,2.1508670384907548e-12
1.3749999999999976,3.306822989145144,0.03754770380373359,-2.5772148156262823e-06,-0.0202425397166125,359.9999975719302,-1.1524657195567769e-07,2.17025367520409e-12
1.3833333333333309,3.3073171180005185,0.036361133048060386,-2.4697909484704944e-06,-0.017416798925724217,359.9999975701499,-1.1569087089504029e-07,2.1856496779533437e-12
1.3916666666666642,3.307795227242735,0.03521265441887795,-2.366072484001711e-06,-0.014658779796321691,359.9999975684231,-1.1612457100243066e-07,2.203696557368458e-12
1.3999999999999975,3.308257846716083,0.034101045274799534,-2.2653972647289144e-06,-0.011967055223569733,359.9999975667487,-1.165478924035303e-07,2.2182520989881394e-12
1.4083333333333308,3.3087054702877756,0.03302507893527689,-2.1682467997958106e-06,-0.009340219467585191,359.9999975651249,-1.1696105237777646e-07,2.235036419016465e-12
1.416666666666664,3.3091386016369726,0.03198359863724513,-2.0740501631440815e-06,-0.006776888529934531,359.9999975635497,-1.1736426472395669e-07,2.248758970272229e-12
1.4249999999999974,3.309557711736378,0.030975495737824314,-1.9831980335051356e-06,-0.004275699813770374,359.999997562022,-1.1775774056052594e-07,2.2643616642079757e-12
1.4333333333333307,3.309963255205483,0.029999665844029796,-1.8951703275191608e-06,-0.001835312319440925,359.9999975605406,-1.1814168730641456e-07,2.2772798630346944e-12
1.441666666666664,3.310355683393134,0.029055063826199906,-1.8103352224320314e-06,0.0005455930842782981,359.99999755910267,-1.1851630961039264e-07,2.2917532262371993e-12
1.4499999999999973,3.3107354214830185,0.028140674108497157,-1.7282438958924914e-06,0.002868314484497662,359.9999975577077,-1.1888180881452279e-07,2.3038782787833002e-12
1.4583333333333306,3.311102881576267,0.027255500507555777,-1.6492162636363636e-06,0.005134127463537355,359.99999755635383,-1.1923838258510316e-07,2.3172808322498888e-12
1.466666666666664,3.311458472503346,0.026398617611290434,-1.572865282039145e-06,0.00734428601539206,359.9999975550401,-1.1958622608706323e-07,2.3286226995361893e-12
1.4749999999999972,3.3118025736589347,0.025569088955354032,-1.4994131713295553e-06,0.009500023333864356,359.99999755376524,-1.1992553080590362e-07,2.3410241704125856e-12
1.4833333333333305,3.312135564437723,0.024766024666533396,-1.4284991046065936e-06,0.011602550533599227,359.9999975525282,-1.2025648500188544e-07,2.351617716011928e-12
1.4916666666666638,3.3124578046105153,0.02398857925871207,-1.3602892422718195e-06,0.013653057435243917,359.99999755132785,-1.2057927396507053e-07,2.363090321699044e-12
1.4999999999999971,3.3127696539481346,0.023235906067705897,-1.2944450761914338e-06,0.015652712981778415,359.99999755016336,-1.2089407964375186e-07,2.3729778799498704e-12
1.5083333333333304,3.3130714427856054,0.022507209692276434,-1.2311678428763623e-06,0.017602664483949468,359.99999754903234,-1.2120108061494568e-07,2.3835627096585566e-12
1.5166666666666637,3.313363494916655,0.021801708040601837,-1.1702489214787315e-06,0.019504037939679367,359.9999975479342,-1.2150045245416548e-07,2.392733074412425e-12
1.524999999999997,3.3136461406763145,0.021118666365983457,-1.1117780012917728e-06,0.02135793936499338,359.999997546868,-1.217923678290885e-07,2.402498610160762e-12
1.5333333333333303,3.3139196744225163,0.020457342399778387,-1.055492235415796e-06,0.02316545399453031,359.9999975458332,-1.220769957183139e-07,2.411007812159719e-12
1.5416666666666636,3.314184403595774,0.019817030097321685,-1.0014994624006407e-06,0.02492764595482245,359.9999975448285,-1.2235450234013495e-07,2.4199914077757325e-12
1.549999999999997,3.314440606200816,0.019197061089214783,-9.495452469154493e-07,0.026645559719241936,359.99999754385334,-1.2262505089482921e-07,2.4278867618686057e-12
1.5583333333333302,3.3146885700542876,0.018596779422983212,-8.997799173767142e-07,0.028320219232533386,359.9999975429056,-1.2288880102946463e-07,2.4361170552871036e-12
1.5666666666666635,3.3149285502664063,0.01801553750722706,-8.519834338468403e-07,0.02995262876431829,359.9999975419855,-1.2314591007904874e-07,2.443418483515478e-12
1.5749999999999968,3.3151608183006007,0.017452746487169095,-8.062023091063943e-07,0.031543772706865716,359.9999975410918,-1.2339653145293776e-07,2.4509714275201265e-12
1.5833333333333302,3.315385612913867,0.016907777954801126,-7.622478858891241e-07,0.033094616120714807,359.999997540224,-1.236408166131953e-07,2.4577113032015993e-12
1.5916666666666635,3.3156031892164206,0.01638006790366854,-7.202452410841308e-07,0.034606104538215506,359.9999975393804,-1.2387891282177211e-07,2.464599349068374e-12
1.5999999999999968,3.315813776153322,0.015869072809096826,-6.799747861337842e-07,0.036079164618663784,359.99999753856173,-1.241109658340685e-07,2.47081751628615e-12
1.60833333333333,3.316017592857706,0.015374231756635772,-6.414336965909618e-07,0.03751470466757614,359.9999975377664,-1.2433711719333507e-07,2.4771265778195203e-12
1.6166666666666634,3.316214871545272,0.014895083792526673,-6.04518086668126e-07,0.0389136135535921,359.9999975369937,-1.245575064337651e-07,2.4828329975943624e-12
1.6249999999999967,3.3164058248078776,0.014431054530350469,-5.692533221103965e-07,0.040276763041100345,359.99999753624274,-1.2477227017645406e-07,2.4885942029843206e-12
1.63333333333333,3.3165906423428497,0.013981686230766758,-5.35577293115548e-07,0.04160500599694579,359.9999975355127,-1.2498154163094217e-07,2.4937951009541885e-12
1.6416666666666633,3.316769543283322,0.013546501460493045,-5.034558074047132e-07,0.04289917760037902,359.99999753480347,-1.251854521885116e-07,2.4990520296667425e-12
1.6499999999999966,3.316942707514698,0.013125060481277616,-4.7278018002201464e-07,0.044160095952904585,359.99999753411447,-1.253841297465956e-07,2.503797210935647e-12
1.6583333333333299,3.3171103214636757,0.012716896135570832,-4.4355019386796836e-07,0.0453885612613374,359.9999975334448,-1.255776998852344e-07,2.5085760106503813e-12
1.6666666666666632,3.3172725682863025,0.012321612837586685,-4.156721893956433e-07,0.04658535666402169,359.9999975327941,-1.2576628537996412e-07,2.512895358280711e-12
1.6749999999999965,3.3174296213267036,0.01193878108573599,-3.89146254709661e-07,0.0477512492903159,359.99999753216156,-1.259500068464089e-07,2.5172259120600124e-12
1.6833333333333298,3.3175816441170567,0.01156799935500058,-3.6389167057734214e-07,0.04888698961253746,359.9999975315467,-1.261289816665308e-07,2.521141838348545e-12
1.691666666666663,3.3177288034601933,0.011208903268015059,-3.398808039692916e-07,0.049993311314903616,359.9999975309492,-1.2630332518530741e-07,2.5250689707860205e-12
1.6999999999999964,3.317871256347017,0.010861108833796866,-3.170444821109092e-07,0.05107093278329145,359.9999975303682,-1.2647315024075e-07,2.5286126039227437e-12
1.7083333333333297,3.3180091532271367,0.010524236370801954,-2.954151306976452e-07,0.05212055637874119,359.9999975298032,-1.2663856688464795e-07,2.5321350698907434e-12
1.716666666666663,3.3181426412795245,0.010197963014878105,-2.7493246900374653e-07,0.053142868929836114,359.99999752925373,-1.2679968318091352e-07,2.5353176160240224e-12
1.7249999999999963,3.3182718676831495,0.009881913032805884,-2.555966139809177e-07,0.05413854209853908,359.9999975287195,-1.269566044445495e-07,2.5384628083297327e-12
1.7333333333333296,3.31839696980504,0.009575805081405988,-2.3727217456609806e-07,0.055108232792606224,359.99999752820037,-1.2710943409963335e-07,2.5413365628187814e-12
1.741666666666663,3.318518068659023,0.009279314301422262,-2.199327958071627e-07,0.05605258334918317,359.99999752769565,-1.2725827283524346e-07,2.5441542865662164e-12
1.7499999999999962,3.3186353114240656,0.008992095447502476,-2.035463200298813e-07,0.05697222125773113,359.9999975272047,-1.2740321935707703e-07,2.5467192494109895e-12
1.7583333333333295,3.3187488093020483,0.008713894654376124,-1.880891782346678e-07,0.057867760559354574,359.99999752672744,-1.2754437031314185e-07,2.5492344071521317e-12
1.7666666666666628,3.3188586865774394,0.008444395160668933,-1.7350534124321607e-07,0.05873980071952752,359.9999975262633,-1.2768181953087927e-07,2.551519216287419e-12
1.7749999999999961,3.318965064264053,0.008183358441477004,-1.5971885886975886e-07,0.05958892809462073,359.9999975258123,-1.278156597917755e-07,2.5537803679986814e-12
1.7833333333333294,3.31906804702249,0.00793048695874741,-1.4671014729349202e-07,0.060415715628883225,359.99999752537366,-1.279459805411245e-07,2.555809925976467e-12
1.7916666666666627,3.319167752595929,0.00768554376191415,-1.3446942566466524e-07,0.06122072250891996,359.99999752494705,-1.2807287015490826e-07,2.5578195619130106e-12
1.799999999999996,3.3192642791036704,0.00744820229076407,-1.2295102133766034e-07,0.06200449597579919,359.9999975245322,-1.2819641460301886e-07,2.5596175261576798e-12
1.8083333333333294,3.3193577377476147,0.0072183375120212015,-1.1214663542961897e-07,0.06276757017556991,359.9999975241287,-1.2831669776069889e-07,2.5613918329782815e-12
1.8166666666666627,3.3194482168351347,0.006995644838242195,-1.0196097303342341e-07,0.06351046671546745,359.99999752373657,-1.2843380182303766e-07,2.56299804757304e-12
1.824999999999996,3.319535824297473,0.006779899545812798,-9.241566293890696e-08,0.06423369542471796,359.9999975233551,-1.285478069810839e-07,2.5645519668088774e-12
1.8333333333333293,3.3196206386300795,0.006570861842641518,-8.348423425112721e-08,0.06493775408235546,359.999997522984,-1.2865879149847706e-07,2.565965186626084e-12
1.8416666666666626,3.319702754681625,0.0063683913047765306,-7.515669157322136e-08,0.06562312886467754,359.99999752262295,-1.2876683197334676e-07,2.5673198854463447e-12
1.8499999999999959,3.319782270571419,0.0061722291153778865,-6.73823669093756e-08,0.06629029430351918,359.999997522272,-1.2887200290467653e-07,2.5685600325275856e-12
1.8583333333333292,3.31985924844169,0.005982143201027312,-6.012518941250532e-08,0.06693971422269615,359.99999752193054,-1.2897437765570498e-07,2.569744148867065e-12
1.8666666666666625,3.3199337929530435,0.005798019024327421,-5.336996192947298e-08,0.06757184096286588,359.9999975215985,-1.290740268578602e-07,2.5708199391055133e-12
1.8749999999999958,3.320005966247705,0.005619578152944186,-4.7113307206842304e-08,0.06818711614553542,359.9999975212756,-1.2917102065048576e-07,2.5718409437297854e-12
1.883333333333329,3.3200758468211227,0.00544675484795901,-4.1313742784171845e-08,0.0687859707485441,359.9999975209615,-1.2926542622937257e-07,2.572772299167032e-12
1.8916666666666624,3.32014350662746,0.005279226651268261,-3.59127016315842e-08,0.06936882594552007,359.99999752065617,-1.293573107192503e-07,2.573666300776504e-12
1.8999999999999957,3.320209020891529,0.005116944032210599,-3.0987062769523415e-08,0.06993609275047444,359.9999975203588,-1.2944673796050747e-07,2.5744258286052857e-12
1.908333333333329,3.320272468108774,0.0049597852573710355,-2.6429132862680727e-08,0.07048817188962708,359.9999975200699,-1.2953377178807706e-07,2.5752214651347573e-12
1.9166666666666623,3.3203338973388528,0.004807393937250435,-2.2221838433764573e-08,0.07102545520691228,359.9999975197889,-1.2961847346189907e-07,2.5758589704590984e-12
1.9249999999999956,3.320393377265271,0.004659820810492647,-1.8357274087154107e-08,0.07154832405241053,359.9999975195156,-1.2970090309716076e-07,2.5765437906325273e-12
1.933333333333329,3.3204509765715597,0.0045167852968247685,-1.4792029996444936e-08,0.07205715130251335,359.99999751924986,-1.2978111969070439e-07,2.577084176004426e-12
1.9416666666666622,3.3205067508586588,0.004378177355009143,-1.1547320160726469e-08,0.07255230027979047,359.9999975189914,-1.2985917998283315e-07,2.577656934694182e-12
1.9499999999999955,3.3205607622688036,0.0042438584775736955,-8.55732622615768e-09,0.07303412558402209,359.9999975187401,-1.2993514039675808e-07,2.5781251026656384e-12
1.9583333333333288,3.3206130598616395,0.004113776445795685,-5.868617946025532e-09,0.07350297337191103,359.9999975184955,-1.300090549496722e-07,2.578584554744094e-12
1.9666666666666621,3.320663709050047,0.003987675885098447,-3.4520121713095075e-09,0.0739591808355132,359.99999751825777,-1.3008097710093703e-07,2.578974279677075e-12
1.9749999999999954,3.3207127556230422,0.0038655065988454293,-1.2914390161978085e-09,0.07440307757164587,359.9999975180264,-1.3015095868850347e-07,2.579347817951434e-12
1.9833333333333287,3.3207602486402736,0.0037471345452815214,6.655917776355286e-10,0.07483498447618815,359.9999975178016,-1.3021905011296956e-07,2.579672796249531e-12
1.991666666666662,3.3208062437026875,0.0036323960163867903,2.4043777712568196e-09,0.07525521447987932,359.9999975175829,-1.3028530087173736e-07,2.5799691366129795e-12
1.9999999999999953,3.3208507833286514,0.003521163352669893,3.942468023761726e-09,0.07566407341729134,359.9999975173702,-1.3034975917258667e-07,2.580231858531371e-12
2.008333333333329,3.3208939198484653,0.003413423501976269,5.295525295655658e-09,0.07606185895339335,359.99999751716337,-1.304124716383183e-07,2.5804684327703054e-12
2.016666666666662,3.3209356892392057,0.0033090772242662836,6.422565495716231e-09,0.07644886131378369,359.9999975169621,-1.3047348433556067e-07,2.5806489762673475e-12
2.0249999999999955,3.3209761405605356,0.0032078499535078617,7.337714323876467e-09,0.07682536372257037,359.9999975167663,-1.305328416341629e-07,2.5808208038713426e-12
2.0333333333333288,3.3210153196014627,0.0031098119564841016,8.089524600724053e-09,0.07719164236050366,359.99999751657595,-1.305905873052924e-07,2.5809552776474538e-12
2.041666666666662,3.3210532590684254,0.003014710408941067,8.717007416737418e-09,0.07754796647204665,359.999997516391,-1.3064676351745143e-07,2.581086016040914e-12
2.0499999999999954,3.321090008021079,0.002922582644877429,9.205385970744347e-09,0.0778945985704558,359.99999751621095,-1.3070141191104819e-07,2.5811657042028655e-12
2.0583333333333287,3.321125595895217,0.002833375845051525,9.588881609549588e-09,0.07823179461057175,359.99999751603605,-1.3075457256441645e-07,2.5812678046617843e-12
2.066666666666662,3.321160065209207,0.0027468440532082577,9.88293911416066e-09,0.07855980363719732,359.999997515866,-1.3080628484448776e-07,2.5813151195063823e-12
2.0749999999999953,3.3211934453988454,0.0026629744070814977,1.0060946039445791e-08,0.07887886910834617,359.9999975157006,-1.308565872653801e-07,2.581371150244324e-12
2.0833333333333286,3.321225778982499,0.0025816500295827234,1.0164882157948096e-08,0.07918922761156649,359.9999975155399,-1.309055166927116e-07,2.5814010333027673e-12
2.091666666666662,3.3212570888546717,0.002502924936517099,1.0143644376825356e-08,0.07949111011629931,359.9999975153835,-1.3095311013588785e-07,2.5814047686817087e-12
2.099999999999995,3.321287417533731,0.0024266517377039437,1.0061718390881201e-08,0.07978474218324022,359.99999751523154,-1.3099940265029146e-07,2.5814284261023924e-12
2.1083333333333285,3.3213167879141796,0.0023526559471326006,9.930540134930966e-09,0.08007034307038094,359.99999751508386,-1.3104442907281875e-07,2.5814109943123503e-12
2.116666666666662,3.3213452392437564,0.0022809462343603986,9.721085385726215e-09,0.08034812652482581,359.9999975149402,-1.3108822289328526e-07,2.5814035235432327e-12
2.124999999999995,3.3213727944169533,0.002211415489715799,9.499981078241151e-09,0.08061830066788003,359.9999975148007,-1.311308170685808e-07,2.581389827136219e-12
2.1333333333333284,3.3213994894108603,0.0021440491308941443,9.241701587879577e-09,0.08088106842814625,359.9999975146651,-1.3117224349589963e-07,2.5813586989428937e-12
2.1416666666666617,3.321425337308041,0.0020788238945170603,8.94776003674957e-09,0.08113662787024395,359.9999975145333,-1.3121253358063457e-07,2.5813375317704828e-12
2.149999999999995,3.321450374085584,0.0020154656211116497,8.624769584673242e-09,0.08138517147252411,359.9999975144052,-1.3125171729491304e-07,2.5812976876841525e-12
2.1583333333333283,3.321474632449932,0.001954155912943388,8.245934959622946e-09,0.08162688700749046,359.99999751428066,-1.3128982473034265e-07,2.581250372832311e-12
2.1666666666666616,3.3214981189423582,0.0018947090614922716,7.845173540777651e-09,0.08186195770017973,359.99999751415965,-1.313268843492109e-07,2.5812080384909698e-12
2.174999999999995,3.3215208728106,0.0018370414787054245,7.42693697089325e-09,0.08209056139112296,359.99999751404204,-1.31362924379495e-07,2.581155743128908e-12
2.1833333333333282,3.3215429071372236,0.0017811896168931907,6.964080686368278e-09,0.08231287182140573,359.99999751392767,-1.313979722334e-07,2.5810934867461253e-12
2.1916666666666615,3.321564261169957,0.0017270483594867604,6.432981166745226e-09,0.08252905827534464,359.9999975138164,-1.3143205454632502e-07,2.581013798577009e-12
2.199999999999995,3.3215849479913775,0.0016746385781428346,5.866566154140034e-09,0.08273928579320261,359.9999975137083,-1.3146519742478667e-07,2.5809465616839874e-12
2.208333333333328,3.3216049774134113,0.0016236791869649232,5.243739992836552e-09,0.08294371434917085,359.99999751360315,-1.3149742574874746e-07,2.5808432160906097e-12
2.2166666666666615,3.3216243788718525,0.0015744653128779071,4.620581989635857e-09,0.08314249978443472,359.999997513501,-1.3152876451647448e-07,2.5807859402185574e-12
2.2249999999999948,3.3216431785318563,0.001526529397282865,3.978330124407409e-09,0.08333579489695789,359.99999751340175,-1.31559237705415e-07,2.5806688982217175e-12
2.233333333333328,3.3216613829347006,0.001480323816720169,3.3373199016790288e-09,0.08352374810767016,359.9999975133053,-1.3158886860791385e-07,2.5806128674774142e-12
2.2416666666666614,3.321679028057477,0.001435338880453966,2.681683357637639e-09,0.08370650353226183,359.99999751321155,-1.3161767994981747e-07,2.580485864459907e-12
2.2499999999999947,3.321696110629535,0.0013916929614503403,2.0291333785149264e-09,0.08388420173972098,359.9999975131205,-1.3164569400198017e-07,2.580433569098546e-12
2.258333333333328,3.3217126568160236,0.0013495159850745331,1.39395418477636e-09,0.08405697951119648,359.99999751303204,-1.3167293217442858e-07,2.5803115465915797e-12
2.2666666666666613,3.3217286960527397,0.0013085787804255195,7.631401572781193e-10,0.08422497026123014,359.9999975129461,-1.3169941573506678e-07,2.580259251230348e-12
2.2749999999999946,3.321744228339683,0.0012690013360021248,1.4928953404360709e-10,0.08438830432251888,359.9999975128626,-1.3172516510639206e-07,2.5801434543615137e-12
2.283333333333328,3.3217592733007097,0.001230520105618225,-4.587684392834709e-10,0.08454710772011477,359.9999975127815,-1.3175019997153766e-07,2.5800886687452017e-12
2.291666666666661,3.3217738505596928,0.0011932411504999606,-1.0780871410460623e-09,0.08470150351448445,359.9999975127026,-1.3177454011148573e-07,2.5799691364936813e-12
2.2999999999999945,3.321787966657905,0.0011570707620578646,-1.6340954203685644e-09,0.08485161187375023,359.9999975126261,-1.3179820417601e-07,2.5799429888123137e-12
2.308333333333328,3.3218016477605143,0.00112189966784264,-2.1705121047735646e-09,0.0849975492570458,359.9999975125518,-1.3182121062417121e-07,2.579814740667695e-12
2.316666666666661,3.3218149004087936,0.0010880480564977818,-2.7067659403892822e-09,0.08513942953104786,359.9999975124796,-1.318435775097684e-07,2.5797910832416363e-12
2.3249999999999944,3.3218277376853216,0.0010549523831427758,-3.223579089195908e-09,0.08527736307372726,359.99999751240944,-1.3186532195548564e-07,2.5796727961179324e-12
2.3333333333333277,3.3218401792139676,0.0010231609351818534,-3.7381207510859365e-09,0.08541145733008314,359.99999751234134,-1.3188646120599293e-07,2.5796454033091708e-12
2.341666666666661,3.3218522315360106,0.0009920647840031816,-4.233959515545325e-09,0.08554181761747724,359.9999975122751,-1.3190701180651098e-07,2.579537077206374e-12
2.3499999999999943,3.3218639044633824,0.0009619838984843778,-4.726057892322823e-09,0.08566854563504599,359.99999751221077,-1.3192698952421284e-07,2.5795059490149025e-12
2.3583333333333276,3.321875217619945,0.0009330164817054266,-5.200281177642454e-09,0.08579174058858641,359.99999751214835,-1.3194641040995157e-07,2.5794038485502035e-12
2.366666666666661,3.321886177546992,0.0009047326544371433,-5.669638517452478e-09,0.08591149932847914,359.9999975120877,-1.3196528939943863e-07,2.5793714752312194e-12
2.3749999999999942,3.321896797327087,0.0008774753926289204,-6.121964460907996e-09,0.08602791575607092,359.99999751202876,-1.319836414930156e-07,2.5792793357874158e-12
2.3833333333333275,3.3219070900428243,0.0008507725071371647,-6.5685476800735025e-09,0.08614108137851093,359.9999975119715,-1.3200148099247696e-07,2.5792469624685144e-12
2.391666666666661,3.3219170524235335,0.0008252666968472242,-6.998914004677758e-09,0.08625108521968808,359.9999975119159,-1.3201882204233317e-07,2.579158558407596e-12
2.399999999999994,3.321926710634388,0.000800162175688918,-7.394899989611177e-09,0.08635801421424202,359.999997511862,-1.3203567833460337e-07,2.5791386363647854e-12
2.4083333333333274,3.3219360646753766,0.0007761240754940245,-7.775819540931817e-09,0.08646195307012466,359.9999975118096,-1.3205206324114024e-07,2.5790502323039415e-12
2.4166666666666607,3.3219451276290726,0.0007526093131054846,-8.153695060776566e-09,0.0865629839970886,359.9999975117587,-1.3206798962406452e-07,2.579029065133603e-12
2.424999999999994,3.3219539158486997,0.000730001288595811,-8.516811939002806e-09,0.08666118690861724,359.9999975117093,-1.3208347017667788e-07,2.5789481318384376e-12
2.4333333333333274,3.3219624227929643,0.0007077007332694009,-8.875830920230151e-09,0.08675663966900032,359.99999751166126,-1.3209851712449438e-07,2.578926964668167e-12
2.4416666666666607,3.321970661544449,0.000686445686092739,-9.192796886962644e-09,0.08684941763706999,359.99999751161465,-1.321131422696574e-07,2.578865953414689e-12
2.449999999999994,3.321978654997658,0.0006656067723368524,-9.505332839136138e-09,0.08693959501340175,359.9999975115694,-1.3212735769782248e-07,2.578836070351274e-12
2.4583333333333273,3.321986396611301,0.0006456006468858732,-9.75243348787719e-09,0.08702724360674934,359.9999975115256,-1.321411741413794e-07,2.578807432415491e-12
2.4666666666666606,3.3219938929266624,0.0006261192845443281,-9.966871969338413e-09,0.08711243285980498,359.999997511483,-1.3215460303928014e-07,2.578776304224535e-12
2.474999999999994,3.3220011635676117,0.0006072131957041222,-1.0179892709603115e-08,0.08719523087759648,359.9999975114417,-1.3216765484941924e-07,2.5787464211612087e-12
2.483333333333327,3.322008201992858,0.0005889377852848229,-1.0362788635448955e-08,0.08727570358394472,359.99999751140155,-1.321803400951658e-07,2.5787302345015244e-12
2.4916666666666605,3.3220150245556206,0.0005713535754462728,-1.0542959819184073e-08,0.08735391523682282,359.99999751136255,-1.321926688454097e-07,2.5786941258002473e-12
2.499999999999994,3.322021637797182,0.0005540881370693649,-1.072378698578603e-08,0.08742992352175812,359.9999975113247,-1.3220464879087536e-07,2.578680429395818e-12
2.508333333333327,3.3220280417175534,0.000537172208266093,-1.0844796665869676e-08,0.0875037902232369,359.9999975112881,-1.32216293303979e-07,2.5786742037570228e-12
2.5166666666666604,3.322034249399296,0.0005211061718748017,-1.0909949416208477e-08,0.08757557734313827,359.99999751125256,-1.322276085881412e-07,2.578671713501055e-12
2.5249999999999937,3.322040267383706,0.0005054907176450049,-1.0979175821305319e-08,0.08764534232891076,359.99999751121806,-1.3223860614128951e-07,2.578653036586295e-12
2.533333333333327,3.322046098941431,0.0004903688928870036,-1.099856774843442e-08,0.08771314220419227,359.99999751118463,-1.3224929309737728e-07,2.5786779391376016e-12
2.5416666666666603,3.3220517506137477,0.0004752769905124225,-1.1020175426536656e-08,0.08777903122399972,359.9999975111521,-1.322596793998315e-07,2.5786468109468734e-12
2.5499999999999936,3.322057225671302,0.00046127229230675994,-1.1025490547700062e-08,0.08784306305048116,359.99999751112057,-1.3226977250669773e-07,2.5786854099018378e-12
2.558333333333327,3.322062524114093,0.0004473721255316168,-1.1031267932234984e-08,0.0879052888267564,359.99999751109,-1.3227958108880172e-07,2.5786493012007477e-12
2.56666666666666,3.322067668836642,0.00043358654368969577,-1.1021859583020001e-08,0.08796575932770481,359.9999975110603,-1.3228911295954643e-07,2.578699106304165e-12
2.5749999999999935,3.3220726467563533,0.0004205048457052405,-1.1011919890643225e-08,0.08802452360213003,359.99999751103144,-1.322983758482489e-07,2.5786580170927094e-12
2.583333333333327,3.322077474226455,0.00040819471074612413,-1.1015987032202207e-08,0.0880816294474934,359.9999975110034,-1.3230737734669407e-07,2.578701596558159e-12
2.59166666666666,3.322082154517592,0.0003955016036637977,-1.1018450612749968e-08,0.08813712273122139,359.9999975109762,-1.3231612443408083e-07,2.5786654878571455e-12
2.5999999999999934,3.322086684359118,0.0003836556755045747,-1.1032191129426306e-08,0.0881910481701734,359.9999975109497,-1.323246245104708e-07,2.578701596557024e-12
2.6083333333333267,3.3220910768336114,0.0003720854973073571,-1.1015923881894434e-08,0.08824344974604306,359.99999751092406,-1.323328843083402e-07,2.578682919642464e-12
2.61666666666666,3.3220953384823533,0.00036081759710331627,-1.1009155292579839e-08,0.08829437024428433,359.99999751089916,-1.3234091072933001e-07,2.5787065770663627e-12
2.6249999999999933,3.3220994627640623,0.00035057470199526794,-1.1003945956700078e-08,0.08834385073660707,359.99999751087495,-1.3234870992158664e-07,2.57869288066224e-12
2.6333333333333266,3.3221034529493725,0.00034002338887013456,-1.0978072138650026e-08,0.08839193135171707,359.9999975108515,-1.323562886488788e-07,2.5787227637241786e-12
2.64166666666666,3.3221073319328096,0.00032913399745147955,-1.0953223583727517e-08,0.08843865160862102,359.9999975108287,-1.3236365284229948e-07,2.5787028416820813e-12
2.6499999999999932,3.322111086631777,0.0003193963584713552,-1.0938001667380479e-08,0.0884840498724603,359.99999751080657,-1.3237080877769952e-07,2.578732724744049e-12
2.6583333333333266,3.322114723587568,0.0003101365190436146,-1.0922758500963087e-08,0.08852816274273506,359.999997510785,-1.323777617819805e-07,2.578715292957182e-12
2.66666666666666,3.322118252612127,0.00030059156189789845,-1.0915181449213127e-08,0.08857102591675722,359.99999751076416,-1.3238451803135804e-07,2.5787389503811717e-12
2.674999999999993,3.322121667164149,0.00029156765053294577,-1.0851127565002145e-08,0.08861267459495104,359.999997510744,-1.3239108267504165e-07,2.5787489114015606e-12
2.6833333333333265,3.322124980326219,0.00028311461231053035,-1.0793941139332127e-08,0.08865314277278252,359.9999975107243,-1.3239746135432965e-07,2.5787563821667604e-12
2.6916666666666598,3.3221281822864017,0.0002744012984119823,-1.0687662385849343e-08,0.08869246348361266,359.9999975107054,-1.3240365900605746e-07,2.578793735994403e-12
2.699999999999993,3.322131295939202,0.0002663156821330236,-1.0558817979580817e-08,0.08873066884283891,359.99999751068697,-1.3240968096626703e-07,2.5787987165044245e-12
2.7083333333333264,3.3221343114726976,0.00025797676742252113,-1.0471175918987075e-08,0.08876779069569639,359.99999751066906,-1.3241553217057434e-07,2.578816148290471e-12
2.7166666666666597,3.322137232157524,0.00025033130771624524,-1.0306468001103469e-08,0.08880385881598374,359.9999975106518,-1.3242121697301137e-07,2.578868443649364e-12
2.724999999999993,3.32214006453497,0.00024244486943649144,-1.01491783545779e-08,0.08883890277634754,359.999997510635,-1.3242674067978175e-07,2.5788609728834075e-12
2.7333333333333263,3.322142811875682,0.0002353275311615394,-1.000907737406998e-08,0.08887295166494143,359.99999751061875,-1.3243210728422074e-07,2.578913268242322e-12
2.7416666666666596,3.322145470909008,0.0002290509992173124,-9.873868113967875e-09,0.08890603288309032,359.9999975106029,-1.3243732139366575e-07,2.5789107779867917e-12
2.749999999999993,3.3221480449056005,0.0002215037075286939,-9.724713130164632e-09,0.08893817381703102,359.99999751058755,-1.3244238734926315e-07,2.5789730343665373e-12
2.758333333333326,3.322150550218675,0.0002148236620319584,-9.579626348232177e-09,0.08896940097610173,359.9999975105726,-1.3244730920439186e-07,2.5789580928350135e-12
2.7666666666666595,3.322152967224369,0.00020909399848403356,-9.422197557140126e-09,0.08899974026437388,359.9999975105582,-1.3245209121281678e-07,2.579025329725183e-12
2.774999999999993,3.322155315546549,0.00020200399382661958,-9.239975782965973e-09,0.0890292161595253,359.99999751054423,-1.324567368344911e-07,2.5790203492144893e-12
2.783333333333326,3.322157595185208,0.00019589973954838453,-9.075031308190677e-09,0.08905785330030586,359.99999751053065,-1.3246125067903917e-07,2.579075134828664e-12
2.7916666666666594,3.3221597963284193,0.00019087583268109364,-8.888009115306338e-09,0.08908567538314081,359.99999751051746,-1.324656356011015e-07,2.579090076359607e-12
2.7999999999999927,3.3221619353294005,0.00018440357354162308,-8.74339713882236e-09,0.08911270487692091,359.9999975105046,-1.32469895869721e-07,2.579114978911369e-12
2.808333333333326,3.322164008917509,0.00017905740275536434,-8.578944144410557e-09,0.08913896466224858,359.9999975104922,-1.324740347390188e-07,2.5791548229943543e-12
2.8166666666666593,3.322166010551453,0.00017354661917788172,-8.394770647191325e-09,0.0891644762932837,359.99999751048017,-1.3247805565163205e-07,2.5791822158013348e-12
2.8249999999999926,3.3221679565844493,0.0001678550105735562,-8.221812245507636e-09,0.0891892608031632,359.99999751046835,-1.3248196196206706e-07,2.5792071183531197e-12
2.833333333333326,3.322169843745869,0.00016345629762900123,-8.031370872010437e-09,0.08921333881787771,359.9999975104567,-1.3248575693495372e-07,2.5792494526913303e-12
2.8416666666666592,3.3221716785769897,0.00015893589240480768,-7.794310425178852e-09,0.08923672999336385,359.9999975104455,-1.324894435188768e-07,2.5792892967743446e-12
2.8499999999999925,3.3221734447245814,0.00015428309873231276,-7.570461094873986e-09,0.0892594539332026,359.9999975104346,-1.3249302514384534e-07,2.579316689581354e-12
2.858333333333326,3.322175161812526,0.00014948555520309152,-7.361728005403276e-09,0.08928152960096486,359.9999975104234,-1.3249650438532394e-07,2.5793590239195857e-12
2.866666666666659,3.322176826570167,0.00014452884789656527,-7.163244830242233e-09,0.08930297525855788,359.99999751041247,-1.324998844870961e-07,2.5793814362162026e-12
2.8749999999999925,3.322178442268161,0.00014112769270273098,-6.921284557131645e-09,0.08932380881603096,359.999997510402,-1.3250316797281668e-07,2.5794461828512693e-12
2.8833333333333258,3.322180005635847,0.00013586641346384482,-6.688544360512934e-09,0.08934404735803989,359.9999975103918,-1.325063577231305e-07,2.579453653616684e-12
2.891666666666659,3.3221815232145273,0.00013224265605626807,-6.4461236365876345e-09,0.08936370776509996,359.9999975103819,-1.3250945632739732e-07,2.57952587101737e-12
2.8999999999999924,3.322182995004194,0.00012851676098511193,-6.211071431282442e-09,0.08938280649279416,359.99999751037234,-1.3251246644188199e-07,2.5795283612723916e-12
2.9083333333333257,3.322184421004845,0.00012467957181267654,-5.9672502862071e-09,0.08940135944015268,359.999997510363,-1.3251539047405676e-07,2.5796055591834937e-12
2.916666666666659,3.3221858044871313,0.00012072047631069197,-5.7294833443691175e-09,0.08941938188131174,359.999997510354,-1.3251823088456298e-07,2.579603068928121e-12
2.9249999999999923,3.322187142180408,0.00011662706021317832,-5.511819289062613e-09,0.08943688871777031,359.99999751034386,-1.3252099000743326e-07,2.579672796073626e-12
2.9333333333333256,3.322188440625954,0.0001145254996086562,-5.298809298563523e-09,0.08945389473310818,359.99999751033397,-1.325236702750216e-07,2.579672796073466e-12
2.941666666666659,3.3221896998237797,0.00011020221338022338,-5.1028837366142825e-09,0.08947041423956906,359.99999751032436,-1.3252627379376372e-07,2.5797375427085764e-12
2.949999999999992,3.3221909165032346,0.00010797567652274414,-4.91081137589039e-09,0.08948646076417387,359.9999975103151,-1.3252880273068382e-07,2.5797375427084258e-12
2.9583333333333255,3.3221921004762542,0.00010337883968120484,-4.705442055779829e-09,0.08950204777306764,359.999997510306,-1.3253125930962672e-07,2.5798097601091527e-12
2.966666666666659,3.3221932452015497,0.00010100199691330979,-4.475717726907458e-09,0.08951718859406682,359.99999751029725,-1.325336455753392e-07,2.579814740619417e-12
2.974999999999992,3.3221943539497647,9.856785615564653e-05,-4.262816815311042e-09,0.089531895450501,359.9999975102889,-1.325359632617428e-07,2.579872016488938e-12
2.9833333333333254,3.3221954365328306,9.350967885950739e-05,-4.05644155059169e-09,0.08954618098562182,359.99999751028054,-1.3253821485790136e-07,2.5798819775096147e-12
2.9916666666666587,3.322196479868172,9.087507318870339e-05,-3.863975602980666e-09,0.08956005726972381,359.99999751027264,-1.3254040163346343e-07,2.5799317826135365e-12
2.999999999999992,3.322197493767721,8.816177070417871e-05,-3.676828936698989e-09,0.08957353556875927,359.9999975102648,-1.3254252587174494e-07,2.579944233889424e-12
3.0083333333333253,3.322198474960832,8.536226742736027e-05,-3.5015388733446238e-09,0.08958662744397407,359.9999975102573,-1.3254458912165137e-07,2.5799890584829485e-12
